{"type":"FeatureCollection","features":[{"type":"Feature","properties":{"Name":"Allison Elementary School","Address":"515 Vargas Road","City":"Austin","State":"TX","Zip code":"78741","Latitude":"30.236759","Longitude":"-97.691428","Accuracy Score":"1","Accuracy Type":"range_interpolation","Number":"515","Street":"Vargas Rd","City2":"Austin","State2":"TX","County":"Travis County","Zip":"78741","Country":"Travis County","Census Year":"2015","State FIPS":"48","County FIPS":"48453","Place FIPS":"4805000","Census Tract Code":"2312","Census Block Code":"2000","Census Block Group":"2"},"geometry":{"type":"Point","coordinates":[-97.691428,30.236759]}},{"type":"Feature","properties":{"Name":"Andrews Elementary School","Address":"6801 Northeast Drive","City":"Austin","State":"TX","Zip code":"78723","Latitude":"30.310595","Longitude":"-97.674355","Accuracy Score":"0.8","Accuracy Type":"street_center","Number":"","Street":"Northeast Dr","City2":"Austin","State2":"TX","County":"Travis County","Zip":"78723","Country":"Travis County","Census Year":"2015","State FIPS":"48","County FIPS":"48453","Place FIPS":"4805000","Census Tract Code":"2112","Census Block Code":"3004","Census Block Group":"3"},"geometry":{"type":"Point","coordinates":[-97.674355,30.310595]}},{"type":"Feature","properties":{"Name":"Baldwin Elementary School","Address":"12200 Meridian Park Blvd","City":"Austin","State":"TX","Zip code":"78739","Latitude":"30.188825","Longitude":"-97.89566","Accuracy Score":"0.8","Accuracy Type":"street_center","Number":"","Street":"Marden Ln","City2":"Austin","State2":"TX","County":"Travis County","Zip":"78739","Country":"Travis County","Census Year":"2015","State FIPS":"48","County FIPS":"48453","Place FIPS":"4805000","Census Tract Code":"1770","Census Block Code":"1054","Census Block Group":"1"},"geometry":{"type":"Point","coordinates":[-97.89566,30.188825]}},{"type":"Feature","properties":{"Name":"Baranoff Elementary School","Address":"12009 Buckingham Gate Road","City":"Austin","State":"TX","Zip code":"78748","Latitude":"30.151297","Longitude":"-97.85045","Accuracy Score":"0.8","Accuracy Type":"street_center","Number":"","Street":"Buckingham Gate Rd","City2":"Austin","State2":"TX","County":"Travis County","Zip":"78748","Country":"Travis County","Census Year":"2015","State FIPS":"48","County FIPS":"48453","Place FIPS":"4805000","Census Tract Code":"1774","Census Block Code":"2011","Census Block Group":"2"},"geometry":{"type":"Point","coordinates":[-97.85045,30.151297]}},{"type":"Feature","properties":{"Name":"Barbara Jordan Elementary School","Address":"6711 Johnny Morris Road","City":"Austin","State":"TX","Zip code":"78724","Latitude":"30.300285","Longitude":"-97.648021","Accuracy Score":"1","Accuracy Type":"range_interpolation","Number":"6711","Street":"Johnny Morris Rd","City2":"Austin","State2":"TX","County":"Travis County","Zip":"78724","Country":"Travis County","Census Year":"2015","State FIPS":"48","County FIPS":"48453","Place FIPS":"4805000","Census Tract Code":"2202","Census Block Code":"3054","Census Block Group":"3"},"geometry":{"type":"Point","coordinates":[-97.648021,30.300285]}},{"type":"Feature","properties":{"Name":"Barrington Elementary School","Address":"400 Cooper Drive","City":"Austin","State":"TX","Zip code":"78752","Latitude":"30.360283","Longitude":"-97.696045","Accuracy Score":"1","Accuracy Type":"range_interpolation","Number":"400","Street":"Cooper Dr","City2":"Austin","State2":"TX","County":"Travis County","Zip":"78753","Country":"Travis County","Census Year":"2015","State FIPS":"48","County FIPS":"48453","Place FIPS":"4805000","Census Tract Code":"1806","Census Block Code":"1001","Census Block Group":"1"},"geometry":{"type":"Point","coordinates":[-97.696045,30.360283]}},{"type":"Feature","properties":{"Name":"Barton Hills Elementary School","Address":"2108 Barton Hills Drive","City":"Austin","State":"TX","Zip code":"78704","Latitude":"30.253914","Longitude":"-97.782769","Accuracy Score":"1","Accuracy Type":"range_interpolation","Number":"2108","Street":"Barton Hills Dr","City2":"Austin","State2":"TX","County":"Travis County","Zip":"78704","Country":"Travis County","Census Year":"2015","State FIPS":"48","County FIPS":"48453","Place FIPS":"4805000","Census Tract Code":"1901","Census Block Code":"3009","Census Block Group":"3"},"geometry":{"type":"Point","coordinates":[-97.782769,30.253914]}},{"type":"Feature","properties":{"Name":"Becker Elementary School","Address":"906 W Milton St.","City":"Austin","State":"TX","Zip code":"78704","Latitude":"30.250317","Longitude":"-97.759704","Accuracy Score":"1","Accuracy Type":"range_interpolation","Number":"906","Street":"Milton St W","City2":"Austin","State2":"TX","County":"Travis County","Zip":"78704","Country":"Travis County","Census Year":"2015","State FIPS":"48","County FIPS":"48453","Place FIPS":"4805000","Census Tract Code":"1305","Census Block Code":"4023","Census Block Group":"4"},"geometry":{"type":"Point","coordinates":[-97.759704,30.250317]}},{"type":"Feature","properties":{"Name":"Blackshear Elementary School","Address":"1712 East 11th St.","City":"Austin","State":"TX","Zip code":"78702","Latitude":"30.266863","Longitude":"-97.722404","Accuracy Score":"1","Accuracy Type":"range_interpolation","Number":"1712","Street":"E 11th St","City2":"Austin","State2":"TX","County":"Travis County","Zip":"78702","Country":"Travis County","Census Year":"2015","State FIPS":"48","County FIPS":"48453","Place FIPS":"4805000","Census Tract Code":"804","Census Block Code":"2038","Census Block Group":"2"},"geometry":{"type":"Point","coordinates":[-97.722404,30.266863]}},{"type":"Feature","properties":{"Name":"Blanton Elementary School","Address":"5408 Westminster Drive","City":"Austin","State":"TX","Zip code":"78723","Latitude":"30.306073","Longitude":"-97.689448","Accuracy Score":"1","Accuracy Type":"range_interpolation","Number":"5408","Street":"Westminster Dr","City2":"Austin","State2":"TX","County":"Travis County","Zip":"78723","Country":"Travis County","Census Year":"2015","State FIPS":"48","County FIPS":"48453","Place FIPS":"4805000","Census Tract Code":"2106","Census Block Code":"3008","Census Block Group":"3"},"geometry":{"type":"Point","coordinates":[-97.689448,30.306073]}},{"type":"Feature","properties":{"Name":"Blazier Elementary School","Address":"8601 Vertex Blvd.","City":"Austin","State":"TX","Zip code":"78744","Latitude":"30.166102","Longitude":"-97.737181","Accuracy Score":"0.33","Accuracy Type":"place","Number":"","Street":"","City2":"Austin","State2":"TX","County":"Travis County","Zip":"78744","Country":"Travis County","Census Year":"2015","State FIPS":"48","County FIPS":"48453","Place FIPS":"4805000","Census Tract Code":"2431","Census Block Code":"3025","Census Block Group":"3"},"geometry":{"type":"Point","coordinates":[-97.737181,30.166102]}},{"type":"Feature","properties":{"Name":"Boone Elementary School","Address":"8101 Croftwood Drive","City":"Austin","State":"TX","Zip code":"78749","Latitude":"30.204253","Longitude":"-97.84087","Accuracy Score":"1","Accuracy Type":"range_interpolation","Number":"8101","Street":"Croftwood Dr","City2":"Austin","State2":"TX","County":"Travis County","Zip":"78749","Country":"Travis County","Census Year":"2015","State FIPS":"48","County FIPS":"48453","Place FIPS":"4805000","Census Tract Code":"1777","Census Block Code":"2016","Census Block Group":"2"},"geometry":{"type":"Point","coordinates":[-97.84087,30.204253]}},{"type":"Feature","properties":{"Name":"Brentwood Elementary School","Address":"6700 Arroyo Seco","City":"Austin","State":"TX","Zip code":"78757","Latitude":"30.339797","Longitude":"-97.730876","Accuracy Score":"1","Accuracy Type":"range_interpolation","Number":"6700","Street":"Arroyo Seco","City2":"Austin","State2":"TX","County":"Travis County","Zip":"78757","Country":"Travis County","Census Year":"2015","State FIPS":"48","County FIPS":"48453","Place FIPS":"4805000","Census Tract Code":"1505","Census Block Code":"2005","Census Block Group":"2"},"geometry":{"type":"Point","coordinates":[-97.730876,30.339797]}},{"type":"Feature","properties":{"Name":"Brooke Elementary School","Address":"3100 4th St.","City":"Austin","State":"TX","Zip code":"78702","Latitude":"30.25455","Longitude":"-97.708633","Accuracy Score":"1","Accuracy Type":"range_interpolation","Number":"3100","Street":"S 4th St","City2":"Austin","State2":"TX","County":"Travis County","Zip":"78702","Country":"Travis County","Census Year":"2015","State FIPS":"48","County FIPS":"48453","Place FIPS":"4805000","Census Tract Code":"902","Census Block Code":"2027","Census Block Group":"2"},"geometry":{"type":"Point","coordinates":[-97.708633,30.25455]}},{"type":"Feature","properties":{"Name":"Bryker Woods Elementary School","Address":"3309 Kerbey Lane","City":"Austin","State":"TX","Zip code":"78703","Latitude":"30.30474","Longitude":"-97.751697","Accuracy Score":"1","Accuracy Type":"range_interpolation","Number":"3309","Street":"Kerbey Ln","City2":"Austin","State2":"TX","County":"Travis County","Zip":"78703","Country":"Travis County","Census Year":"2015","State FIPS":"48","County FIPS":"48453","Place FIPS":"4805000","Census Tract Code":"1603","Census Block Code":"1004","Census Block Group":"1"},"geometry":{"type":"Point","coordinates":[-97.751697,30.30474]}},{"type":"Feature","properties":{"Name":"Campbell Elementary School","Address":"2613 Rogers Ave.","City":"Austin","State":"TX","Zip code":"78722","Latitude":"30.282779","Longitude":"-97.714893","Accuracy Score":"1","Accuracy Type":"range_interpolation","Number":"2613","Street":"Rogers Ave","City2":"Austin","State2":"TX","County":"Travis County","Zip":"78722","Country":"Travis County","Census Year":"2015","State FIPS":"48","County FIPS":"48453","Place FIPS":"4805000","Census Tract Code":"402","Census Block Code":"2012","Census Block Group":"2"},"geometry":{"type":"Point","coordinates":[-97.714893,30.282779]}},{"type":"Feature","properties":{"Name":"Casey Elementary School","Address":"9400 Texas Oaks Drive","City":"Austin","State":"TX","Zip code":"78748","Latitude":"30.174717","Longitude":"-97.814552","Accuracy Score":"1","Accuracy Type":"range_interpolation","Number":"9400","Street":"Texas Oaks Dr","City2":"Austin","State2":"TX","County":"Travis County","Zip":"78748","Country":"Travis County","Census Year":"2015","State FIPS":"48","County FIPS":"48453","Place FIPS":"4805000","Census Tract Code":"2423","Census Block Code":"2007","Census Block Group":"2"},"geometry":{"type":"Point","coordinates":[-97.814552,30.174717]}},{"type":"Feature","properties":{"Name":"Casis Elementary School","Address":"2710 Exposition Blvd.","City":"Austin","State":"TX","Zip code":"78703","Latitude":"30.303278","Longitude":"-97.764479","Accuracy Score":"1","Accuracy Type":"range_interpolation","Number":"2710","Street":"Exposition Blvd","City2":"Austin","State2":"TX","County":"Travis County","Zip":"78703","Country":"Travis County","Census Year":"2015","State FIPS":"48","County FIPS":"48453","Place FIPS":"4805000","Census Tract Code":"1604","Census Block Code":"3014","Census Block Group":"3"},"geometry":{"type":"Point","coordinates":[-97.764479,30.303278]}},{"type":"Feature","properties":{"Name":"Clayton Elementary School","Address":"7525 La Crosse Ave.","City":"Austin","State":"TX","Zip code":"78739","Latitude":"30.191197","Longitude":"-97.874593","Accuracy Score":"0.8","Accuracy Type":"street_center","Number":"","Street":"La Crosse Ave","City2":"Austin","State2":"TX","County":"Travis County","Zip":"78739","Country":"Travis County","Census Year":"2015","State FIPS":"48","County FIPS":"48453","Place FIPS":"4805000","Census Tract Code":"1770","Census Block Code":"2016","Census Block Group":"2"},"geometry":{"type":"Point","coordinates":[-97.874593,30.191197]}},{"type":"Feature","properties":{"Name":"Cook Elementary School","Address":"1511 Cripple Creek Drive","City":"Austin","State":"TX","Zip code":"78758","Latitude":"30.377575","Longitude":"-97.70392","Accuracy Score":"1","Accuracy Type":"range_interpolation","Number":"1511","Street":"Cripple Creek Dr","City2":"Austin","State2":"TX","County":"Travis County","Zip":"78758","Country":"Travis County","Census Year":"2015","State FIPS":"48","County FIPS":"48453","Place FIPS":"4805000","Census Tract Code":"1821","Census Block Code":"2009","Census Block Group":"2"},"geometry":{"type":"Point","coordinates":[-97.70392,30.377575]}},{"type":"Feature","properties":{"Name":"Cowan Elementary School","Address":"2817 Kentish Drive","City":"Austin","State":"TX","Zip code":"78748","Latitude":"30.188497","Longitude":"-97.831209","Accuracy Score":"1","Accuracy Type":"range_interpolation","Number":"2817","Street":"Kentish Dr","City2":"Austin","State2":"TX","County":"Travis County","Zip":"78748","Country":"Travis County","Census Year":"2015","State FIPS":"48","County FIPS":"48453","Place FIPS":"4805000","Census Tract Code":"1746","Census Block Code":"1001","Census Block Group":"1"},"geometry":{"type":"Point","coordinates":[-97.831209,30.188497]}},{"type":"Feature","properties":{"Name":"Cunningham Elementary School","Address":"2200 Berkeley Ave.","City":"Austin","State":"TX","Zip code":"78745","Latitude":"30.209338","Longitude":"-97.805356","Accuracy Score":"1","Accuracy Type":"range_interpolation","Number":"2200","Street":"Berkeley Ave","City2":"Austin","State2":"TX","County":"Travis County","Zip":"78745","Country":"Travis County","Census Year":"2015","State FIPS":"48","County FIPS":"48453","Place FIPS":"4805000","Census Tract Code":"1713","Census Block Code":"3026","Census Block Group":"3"},"geometry":{"type":"Point","coordinates":[-97.805356,30.209338]}},{"type":"Feature","properties":{"Name":"Davis Elementary School","Address":"5214 Duval Road","City":"Austin","State":"TX","Zip code":"78727","Latitude":"30.417599","Longitude":"-97.741693","Accuracy Score":"1","Accuracy Type":"range_interpolation","Number":"5214","Street":"Duval Rd","City2":"Austin","State2":"TX","County":"Travis County","Zip":"78727","Country":"Travis County","Census Year":"2015","State FIPS":"48","County FIPS":"48453","Place FIPS":"4805000","Census Tract Code":"1745","Census Block Code":"2005","Census Block Group":"2"},"geometry":{"type":"Point","coordinates":[-97.741693,30.417599]}},{"type":"Feature","properties":{"Name":"Dawson Elementary School","Address":"3001 S. First St.","City":"Austin","State":"TX","Zip code":"78704","Latitude":"30.235423","Longitude":"-97.76395","Accuracy Score":"1","Accuracy Type":"range_interpolation","Number":"3001","Street":"S 1st St","City2":"Austin","State2":"TX","County":"Travis County","Zip":"78704","Country":"Travis County","Census Year":"2015","State FIPS":"48","County FIPS":"48453","Place FIPS":"4805000","Census Tract Code":"1307","Census Block Code":"3012","Census Block Group":"3"},"geometry":{"type":"Point","coordinates":[-97.76395,30.235423]}},{"type":"Feature","properties":{"Name":"Dobie Prekindergarten Center","Address":"1200 E. Rundberg Lane","City":"Austin","State":"TX","Zip code":"78753","Latitude":"30.354183","Longitude":"-97.681223","Accuracy Score":"1","Accuracy Type":"range_interpolation","Number":"1200","Street":"E Rundberg Ln","City2":"Austin","State2":"TX","County":"Travis County","Zip":"78753","Country":"Travis County","Census Year":"2015","State FIPS":"48","County FIPS":"48453","Place FIPS":"4805000","Census Tract Code":"1833","Census Block Code":"1010","Census Block Group":"1"},"geometry":{"type":"Point","coordinates":[-97.681223,30.354183]}},{"type":"Feature","properties":{"Name":"Doss Elementary School","Address":"7005 Northledge Drive","City":"Austin","State":"TX","Zip code":"78731","Latitude":"30.356039","Longitude":"-97.763738","Accuracy Score":"1","Accuracy Type":"range_interpolation","Number":"7005","Street":"Northledge Dr","City2":"Austin","State2":"TX","County":"Travis County","Zip":"78731","Country":"Travis County","Census Year":"2015","State FIPS":"48","County FIPS":"48453","Place FIPS":"4805000","Census Tract Code":"1718","Census Block Code":"3005","Census Block Group":"3"},"geometry":{"type":"Point","coordinates":[-97.763738,30.356039]}},{"type":"Feature","properties":{"Name":"Galindo Elementary School","Address":"3800 S. Second St.","City":"Austin","State":"TX","Zip code":"78704","Latitude":"30.22943","Longitude":"-97.770868","Accuracy Score":"1","Accuracy Type":"range_interpolation","Number":"3800","Street":"S 2nd St","City2":"Austin","State2":"TX","County":"Travis County","Zip":"78704","Country":"Travis County","Census Year":"2015","State FIPS":"48","County FIPS":"48453","Place FIPS":"4805000","Census Tract Code":"1307","Census Block Code":"1005","Census Block Group":"1"},"geometry":{"type":"Point","coordinates":[-97.770868,30.22943]}},{"type":"Feature","properties":{"Name":"Govalle Elementary School","Address":"3601 Govalle Ave.","City":"Austin","State":"TX","Zip code":"78702","Latitude":"30.26469","Longitude":"-97.698842","Accuracy Score":"1","Accuracy Type":"range_interpolation","Number":"3601","Street":"Govalle Ave","City2":"Austin","State2":"TX","County":"Travis County","Zip":"78702","Country":"Travis County","Census Year":"2015","State FIPS":"48","County FIPS":"48453","Place FIPS":"4805000","Census Tract Code":"801","Census Block Code":"1024","Census Block Group":"1"},"geometry":{"type":"Point","coordinates":[-97.698842,30.26469]}},{"type":"Feature","properties":{"Name":"Graham Elementary School","Address":"11211 Tom Adams Drive","City":"Austin","State":"TX","Zip code":"78753","Latitude":"30.373837","Longitude":"-97.669282","Accuracy Score":"0.8","Accuracy Type":"street_center","Number":"","Street":"Tom Adams Dr","City2":"Austin","State2":"TX","County":"Travis County","Zip":"78753","Country":"Travis County","Census Year":"2015","State FIPS":"48","County FIPS":"48453","Place FIPS":"4805000","Census Tract Code":"1833","Census Block Code":"2003","Census Block Group":"2"},"geometry":{"type":"Point","coordinates":[-97.669282,30.373837]}},{"type":"Feature","properties":{"Name":"Guerrero Thompson Elementary School","Address":"102 E. Rundberg Lane","City":"Austin","State":"TX","Zip code":"78753","Latitude":"30.361004","Longitude":"-97.693406","Accuracy Score":"1","Accuracy Type":"range_interpolation","Number":"102","Street":"E Rundberg Ln","City2":"Austin","State2":"TX","County":"Travis County","Zip":"78753","Country":"Travis County","Census Year":"2015","State FIPS":"48","County FIPS":"48453","Place FIPS":"4805000","Census Tract Code":"1823","Census Block Code":"3005","Census Block Group":"3"},"geometry":{"type":"Point","coordinates":[-97.693406,30.361004]}},{"type":"Feature","properties":{"Name":"Gullett Elementary School","Address":"6310 Treadwell Blvd.","City":"Austin","State":"TX","Zip code":"78757","Latitude":"30.343121","Longitude":"-97.748478","Accuracy Score":"1","Accuracy Type":"range_interpolation","Number":"6310","Street":"Treadwell Blvd","City2":"Austin","State2":"TX","County":"Travis County","Zip":"78757","Country":"Travis County","Census Year":"2015","State FIPS":"48","County FIPS":"48453","Place FIPS":"4805000","Census Tract Code":"1501","Census Block Code":"2019","Census Block Group":"2"},"geometry":{"type":"Point","coordinates":[-97.748478,30.343121]}},{"type":"Feature","properties":{"Name":"Harris Elementary School","Address":"1711 Wheless Lane","City":"Austin","State":"TX","Zip code":"78723","Latitude":"30.315159","Longitude":"-97.69099","Accuracy Score":"1","Accuracy Type":"range_interpolation","Number":"1711","Street":"Wheless Ln","City2":"Austin","State2":"TX","County":"Travis County","Zip":"78723","Country":"Travis County","Census Year":"2015","State FIPS":"48","County FIPS":"48453","Place FIPS":"4805000","Census Tract Code":"2106","Census Block Code":"1000","Census Block Group":"1"},"geometry":{"type":"Point","coordinates":[-97.69099,30.315159]}},{"type":"Feature","properties":{"Name":"Hart Elementary School","Address":"8301 Furness St.","City":"Austin","State":"TX","Zip code":"78753","Latitude":"30.342816","Longitude":"-97.689896","Accuracy Score":"0.8","Accuracy Type":"range_interpolation","Number":"8301","Street":"Furness Dr","City2":"Austin","State2":"TX","County":"Travis County","Zip":"78753","Country":"Travis County","Census Year":"2015","State FIPS":"48","County FIPS":"48453","Place FIPS":"4805000","Census Tract Code":"1813","Census Block Code":"2032","Census Block Group":"2"},"geometry":{"type":"Point","coordinates":[-97.689896,30.342816]}},{"type":"Feature","properties":{"Name":"Highland Park Elementary School","Address":"4900 Fairview Drive","City":"Austin","State":"TX","Zip code":"78731","Latitude":"30.329923","Longitude":"-97.759613","Accuracy Score":"1","Accuracy Type":"range_interpolation","Number":"4900","Street":"Fairview Dr","City2":"Austin","State2":"TX","County":"Travis County","Zip":"78731","Country":"Travis County","Census Year":"2015","State FIPS":"48","County FIPS":"48453","Place FIPS":"4805000","Census Tract Code":"101","Census Block Code":"2007","Census Block Group":"2"},"geometry":{"type":"Point","coordinates":[-97.759613,30.329923]}},{"type":"Feature","properties":{"Name":"Hill Elementary School","Address":"8601 Tallwood Drive","City":"Austin","State":"TX","Zip code":"78759","Latitude":"30.377101","Longitude":"-97.749201","Accuracy Score":"1","Accuracy Type":"range_interpolation","Number":"8601","Street":"Tallwood Dr","City2":"Austin","State2":"TX","County":"Travis County","Zip":"78759","Country":"Travis County","Census Year":"2015","State FIPS":"48","County FIPS":"48453","Place FIPS":"4805000","Census Tract Code":"1707","Census Block Code":"1004","Census Block Group":"1"},"geometry":{"type":"Point","coordinates":[-97.749201,30.377101]}},{"type":"Feature","properties":{"Name":"Houston Elementary School","Address":"5409 Ponciana Drive","City":"Austin","State":"TX","Zip code":"78744","Latitude":"30.198593","Longitude":"-97.755374","Accuracy Score":"0.8","Accuracy Type":"range_interpolation","Number":"5409","Street":"Ponciana Dr","City2":"Austin","State2":"TX","County":"Travis County","Zip":"78744","Country":"Travis County","Census Year":"2015","State FIPS":"48","County FIPS":"48453","Place FIPS":"4805000","Census Tract Code":"2411","Census Block Code":"2003","Census Block Group":"2"},"geometry":{"type":"Point","coordinates":[-97.755374,30.198593]}},{"type":"Feature","properties":{"Name":"John B. Winn Elementary School","Address":"3500 Susquehanna Lane","City":"Austin","State":"TX","Zip code":"78723","Latitude":"30.313588","Longitude":"-97.6655","Accuracy Score":"1","Accuracy Type":"range_interpolation","Number":"3500","Street":"Susquehanna Ln","City2":"Austin","State2":"TX","County":"Travis County","Zip":"78723","Country":"Travis County","Census Year":"2015","State FIPS":"48","County FIPS":"48453","Place FIPS":"4805000","Census Tract Code":"2113","Census Block Code":"1002","Census Block Group":"1"},"geometry":{"type":"Point","coordinates":[-97.6655,30.313588]}},{"type":"Feature","properties":{"Name":"Joslin Elementary School","Address":"4500 Manchaca Road","City":"Austin","State":"TX","Zip code":"78745","Latitude":"30.228108","Longitude":"-97.789405","Accuracy Score":"1","Accuracy Type":"range_interpolation","Number":"4500","Street":"Manchaca Rd","City2":"Austin","State2":"TX","County":"Travis County","Zip":"78745","Country":"Travis County","Census Year":"2015","State FIPS":"48","County FIPS":"48453","Place FIPS":"4805000","Census Tract Code":"2002","Census Block Code":"1006","Census Block Group":"1"},"geometry":{"type":"Point","coordinates":[-97.789405,30.228108]}},{"type":"Feature","properties":{"Name":"Kiker Elementary School","Address":"5913 La Crosse Ave.","City":"Austin","State":"TX","Zip code":"78739","Latitude":"30.191964","Longitude":"-97.880437","Accuracy Score":"1","Accuracy Type":"range_interpolation","Number":"5913","Street":"La Crosse Ave","City2":"Austin","State2":"TX","County":"Travis County","Zip":"78739","Country":"Travis County","Census Year":"2015","State FIPS":"48","County FIPS":"48453","Place FIPS":"4805000","Census Tract Code":"1770","Census Block Code":"3000","Census Block Group":"3"},"geometry":{"type":"Point","coordinates":[-97.880437,30.191964]}},{"type":"Feature","properties":{"Name":"Kocurek Elementary School","Address":"9800 Curlew Drive","City":"Austin","State":"TX","Zip code":"78748","Latitude":"30.178021","Longitude":"-97.833601","Accuracy Score":"1","Accuracy Type":"range_interpolation","Number":"9800","Street":"Curlew Dr","City2":"Austin","State2":"TX","County":"Travis County","Zip":"78748","Country":"Travis County","Census Year":"2015","State FIPS":"48","County FIPS":"48453","Place FIPS":"4805000","Census Tract Code":"1747","Census Block Code":"1006","Census Block Group":"1"},"geometry":{"type":"Point","coordinates":[-97.833601,30.178021]}},{"type":"Feature","properties":{"Name":"Langford Elementary School","Address":"2206 Blue Meadow Drive","City":"Austin","State":"TX","Zip code":"78744","Latitude":"30.18184","Longitude":"-97.764372","Accuracy Score":"1","Accuracy Type":"range_interpolation","Number":"2206","Street":"Blue Meadow Dr","City2":"Austin","State2":"TX","County":"Travis County","Zip":"78744","Country":"Travis County","Census Year":"2015","State FIPS":"48","County FIPS":"48453","Place FIPS":"4805000","Census Tract Code":"2427","Census Block Code":"4016","Census Block Group":"4"},"geometry":{"type":"Point","coordinates":[-97.764372,30.18184]}},{"type":"Feature","properties":{"Name":"Lee Elementary School","Address":"3308 Hampton Road","City":"Austin","State":"TX","Zip code":"78705","Latitude":"30.293152","Longitude":"-97.727413","Accuracy Score":"1","Accuracy Type":"range_interpolation","Number":"3308","Street":"Hampton Rd","City2":"Austin","State2":"TX","County":"Travis County","Zip":"78705","Country":"Travis County","Census Year":"2015","State FIPS":"48","County FIPS":"48453","Place FIPS":"4805000","Census Tract Code":"401","Census Block Code":"2009","Census Block Group":"2"},"geometry":{"type":"Point","coordinates":[-97.727413,30.293152]}},{"type":"Feature","properties":{"Name":"Linder Elementary School","Address":"2800 Metcalfe Road","City":"Austin","State":"TX","Zip code":"78741","Latitude":"30.226155","Longitude":"-97.736993","Accuracy Score":"1","Accuracy Type":"range_interpolation","Number":"2800","Street":"Metcalfe Rd","City2":"Austin","State2":"TX","County":"Travis County","Zip":"78741","Country":"Travis County","Census Year":"2015","State FIPS":"48","County FIPS":"48453","Place FIPS":"4805000","Census Tract Code":"2307","Census Block Code":"1002","Census Block Group":"1"},"geometry":{"type":"Point","coordinates":[-97.736993,30.226155]}},{"type":"Feature","properties":{"Name":"Lucy Read Pre-Kindergarten School","Address":"2608 RichCreek","City":"Austin","State":"TX","Zip code":"78757","Latitude":"30.351652","Longitude":"-97.73635","Accuracy Score":"1","Accuracy Type":"range_interpolation","Number":"2608","Street":"Richcreek Rd","City2":"Austin","State2":"TX","County":"Travis County","Zip":"78757","Country":"Travis County","Census Year":"2015","State FIPS":"48","County FIPS":"48453","Place FIPS":"4805000","Census Tract Code":"1501","Census Block Code":"1003","Census Block Group":"1"},"geometry":{"type":"Point","coordinates":[-97.73635,30.351652]}},{"type":"Feature","properties":{"Name":"Maplewood Elementary School","Address":"3808 Maplewood Ave.","City":"Austin","State":"TX","Zip code":"78722","Latitude":"30.29239","Longitude":"-97.714569","Accuracy Score":"1","Accuracy Type":"range_interpolation","Number":"3808","Street":"Maplewood Ave","City2":"Austin","State2":"TX","County":"Travis County","Zip":"78722","Country":"Travis County","Census Year":"2015","State FIPS":"48","County FIPS":"48453","Place FIPS":"4805000","Census Tract Code":"307","Census Block Code":"1022","Census Block Group":"1"},"geometry":{"type":"Point","coordinates":[-97.714569,30.29239]}},{"type":"Feature","properties":{"Name":"Mathews Elementary School","Address":"906 West Lynn St.","City":"Austin","State":"TX","Zip code":"78703","Latitude":"30.277926","Longitude":"-97.76085","Accuracy Score":"1","Accuracy Type":"range_interpolation","Number":"906","Street":"W Lynn St","City2":"Austin","State2":"TX","County":"Travis County","Zip":"78703","Country":"Travis County","Census Year":"2015","State FIPS":"48","County FIPS":"48453","Place FIPS":"4805000","Census Tract Code":"1200","Census Block Code":"1010","Census Block Group":"1"},"geometry":{"type":"Point","coordinates":[-97.76085,30.277926]}},{"type":"Feature","properties":{"Name":"McBee Elementary School","Address":"1001 West Braker","City":"Austin","State":"TX","Zip code":"78758","Latitude":"30.38368","Longitude":"-97.690342","Accuracy Score":"1","Accuracy Type":"range_interpolation","Number":"1001","Street":"W Braker Ln","City2":"Austin","State2":"TX","County":"Travis County","Zip":"78758","Country":"Travis County","Census Year":"2015","State FIPS":"48","County FIPS":"48453","Place FIPS":"4805000","Census Tract Code":"1845","Census Block Code":"2022","Census Block Group":"2"},"geometry":{"type":"Point","coordinates":[-97.690342,30.38368]}},{"type":"Feature","properties":{"Name":"Menchaca Elementary School","Address":"12120 Manchaca Road","City":"Austin","State":"TX","Zip code":"78748","Latitude":"30.14139","Longitude":"-97.833107","Accuracy Score":"1","Accuracy Type":"range_interpolation","Number":"12120","Street":"Manchaca Rd","City2":"Austin","State2":"TX","County":"Travis County","Zip":"78748","Country":"Travis County","Census Year":"2015","State FIPS":"48","County FIPS":"48453","Place FIPS":"4805000","Census Tract Code":"1772","Census Block Code":"1008","Census Block Group":"1"},"geometry":{"type":"Point","coordinates":[-97.833107,30.14139]}},{"type":"Feature","properties":{"Name":"Metz Elementary School","Address":"84 Robert T. Martinez Jr. St.","City":"Austin","State":"TX","Zip code":"78702","Latitude":"30.255936","Longitude":"-97.720683","Accuracy Score":"0.8","Accuracy Type":"street_center","Number":"","Street":"Robert Martinez Jr St","City2":"Austin","State2":"TX","County":"Travis County","Zip":"78702","Country":"Travis County","Census Year":"2015","State FIPS":"48","County FIPS":"48453","Place FIPS":"4805000","Census Tract Code":"902","Census Block Code":"3021","Census Block Group":"3"},"geometry":{"type":"Point","coordinates":[-97.720683,30.255936]}},{"type":"Feature","properties":{"Name":"Mills Elementary School","Address":"6201 Davis Lane","City":"Austin","State":"TX","Zip code":"78749","Latitude":"30.211838","Longitude":"-97.876502","Accuracy Score":"1","Accuracy Type":"range_interpolation","Number":"6201","Street":"Davis Ln","City2":"Austin","State2":"TX","County":"Travis County","Zip":"78749","Country":"Travis County","Census Year":"2015","State FIPS":"48","County FIPS":"48453","Place FIPS":"4805000","Census Tract Code":"1738","Census Block Code":"4011","Census Block Group":"4"},"geometry":{"type":"Point","coordinates":[-97.876502,30.211838]}},{"type":"Feature","properties":{"Name":"Norman Elementary School","Address":"4001 Tannehill Lane","City":"Austin","State":"TX","Zip code":"78721","Latitude":"30.281993","Longitude":"-97.672286","Accuracy Score":"1","Accuracy Type":"range_interpolation","Number":"4001","Street":"Tannehill Ln","City2":"Austin","State2":"TX","County":"Travis County","Zip":"78721","Country":"Travis County","Census Year":"2015","State FIPS":"48","County FIPS":"48453","Place FIPS":"4805000","Census Tract Code":"2110","Census Block Code":"1002","Census Block Group":"1"},"geometry":{"type":"Point","coordinates":[-97.672286,30.281993]}},{"type":"Feature","properties":{"Name":"Oak Hill Elementary School","Address":"6101 Patton Ranch Road","City":"Austin","State":"TX","Zip code":"78735","Latitude":"30.238872","Longitude":"-97.85894","Accuracy Score":"1","Accuracy Type":"range_interpolation","Number":"6101","Street":"Patton Ranch Rd","City2":"Austin","State2":"TX","County":"Travis County","Zip":"78735","Country":"Travis County","Census Year":"2015","State FIPS":"48","County FIPS":"48453","Place FIPS":"4805000","Census Tract Code":"1915","Census Block Code":"1024","Census Block Group":"1"},"geometry":{"type":"Point","coordinates":[-97.85894,30.238872]}},{"type":"Feature","properties":{"Name":"Oak Springs Elementary School","Address":"3601 Webberville Road","City":"Austin","State":"TX","Zip code":"78702","Latitude":"30.271171","Longitude":"-97.705508","Accuracy Score":"1","Accuracy Type":"range_interpolation","Number":"3601","Street":"Webberville Rd","City2":"Austin","State2":"TX","County":"Travis County","Zip":"78702","Country":"Travis County","Census Year":"2015","State FIPS":"48","County FIPS":"48453","Place FIPS":"4805000","Census Tract Code":"801","Census Block Code":"1006","Census Block Group":"1"},"geometry":{"type":"Point","coordinates":[-97.705508,30.271171]}},{"type":"Feature","properties":{"Name":"Odom Elementary School","Address":"1010 Turtle Creek Blvd.","City":"Austin","State":"TX","Zip code":"78745","Latitude":"30.205255","Longitude":"-97.789166","Accuracy Score":"1","Accuracy Type":"range_interpolation","Number":"1010","Street":"Turtle Creek Blvd","City2":"Austin","State2":"TX","County":"Travis County","Zip":"78745","Country":"Travis County","Census Year":"2015","State FIPS":"48","County FIPS":"48453","Place FIPS":"4805000","Census Tract Code":"2410","Census Block Code":"2000","Census Block Group":"2"},"geometry":{"type":"Point","coordinates":[-97.789166,30.205255]}},{"type":"Feature","properties":{"Name":"Ortega Elementary School","Address":"1135 Garland Ave.","City":"Austin","State":"TX","Zip code":"78721","Latitude":"30.270232","Longitude":"-97.684794","Accuracy Score":"1","Accuracy Type":"range_interpolation","Number":"1135","Street":"Garland Ave","City2":"Austin","State2":"TX","County":"Travis County","Zip":"78721","Country":"Travis County","Census Year":"2015","State FIPS":"48","County FIPS":"48453","Place FIPS":"4805000","Census Tract Code":"2110","Census Block Code":"2011","Census Block Group":"2"},"geometry":{"type":"Point","coordinates":[-97.684794,30.270232]}},{"type":"Feature","properties":{"Name":"Overton Elementary School","Address":"7201 Colony Loop Drive","City":"Austin","State":"TX","Zip code":"78724","Latitude":"30.302283","Longitude":"-97.637394","Accuracy Score":"0.8","Accuracy Type":"street_center","Number":"","Street":"Colony Loop Dr","City2":"Austin","State2":"TX","County":"Travis County","Zip":"78724","Country":"Travis County","Census Year":"2015","State FIPS":"48","County FIPS":"48453","Place FIPS":"4805000","Census Tract Code":"2202","Census Block Code":"1000","Census Block Group":"1"},"geometry":{"type":"Point","coordinates":[-97.637394,30.302283]}},{"type":"Feature","properties":{"Name":"Padr�_n Elementary School","Address":"2011 West Rundberg Lane","City":"Austin","State":"TX","Zip code":"78758","Latitude":"30.373208","Longitude":"-97.718592","Accuracy Score":"1","Accuracy Type":"range_interpolation","Number":"2011","Street":"W Rundberg Ln","City2":"Austin","State2":"TX","County":"Travis County","Zip":"78758","Country":"Travis County","Census Year":"2015","State FIPS":"48","County FIPS":"48453","Place FIPS":"4805000","Census Tract Code":"1820","Census Block Code":"2006","Census Block Group":"2"},"geometry":{"type":"Point","coordinates":[-97.718592,30.373208]}},{"type":"Feature","properties":{"Name":"Palm Elementary School","Address":"7601 Dixie Drive","City":"Austin","State":"TX","Zip code":"78744","Latitude":"30.165393","Longitude":"-97.744524","Accuracy Score":"1","Accuracy Type":"range_interpolation","Number":"7601","Street":"Dixie Dr","City2":"Austin","State2":"TX","County":"Travis County","Zip":"78744","Country":"Travis County","Census Year":"2015","State FIPS":"48","County FIPS":"48453","Place FIPS":"4805000","Census Tract Code":"2426","Census Block Code":"2000","Census Block Group":"2"},"geometry":{"type":"Point","coordinates":[-97.744524,30.165393]}},{"type":"Feature","properties":{"Name":"Patton Elementary School","Address":"6001 Westcreek Drive","City":"Austin","State":"TX","Zip code":"7874","Latitude":"30.236119","Longitude":"-97.846074","Accuracy Score":"1","Accuracy Type":"range_interpolation","Number":"6001","Street":"Westcreek Dr","City2":"Austin","State2":"TX","County":"Travis County","Zip":"78749","Country":"Travis County","Census Year":"2015","State FIPS":"48","County FIPS":"48453","Place FIPS":"4805000","Census Tract Code":"1749","Census Block Code":"4001","Census Block Group":"4"},"geometry":{"type":"Point","coordinates":[-97.846074,30.236119]}},{"type":"Feature","properties":{"Name":"Pease Elementary School","Address":"1106 Rio Grande","City":"Austin","State":"TX","Zip code":"78701","Latitude":"30.274707","Longitude":"-97.747935","Accuracy Score":"1","Accuracy Type":"range_interpolation","Number":"1106","Street":"Rio Grande St","City2":"Austin","State2":"TX","County":"Travis County","Zip":"78701","Country":"Travis County","Census Year":"2015","State FIPS":"48","County FIPS":"48453","Place FIPS":"4805000","Census Tract Code":"1100","Census Block Code":"1016","Census Block Group":"1"},"geometry":{"type":"Point","coordinates":[-97.747935,30.274707]}},{"type":"Feature","properties":{"Name":"Pecan Springs Elementary School","Address":"3100 Rogge Lane","City":"Austin","State":"TX","Zip code":"78723","Latitude":"30.302907","Longitude":"-97.677685","Accuracy Score":"1","Accuracy Type":"range_interpolation","Number":"3100","Street":"Rogge Ln","City2":"Austin","State2":"TX","County":"Travis County","Zip":"78723","Country":"Travis County","Census Year":"2015","State FIPS":"48","County FIPS":"48453","Place FIPS":"4805000","Census Tract Code":"2107","Census Block Code":"4005","Census Block Group":"4"},"geometry":{"type":"Point","coordinates":[-97.677685,30.302907]}},{"type":"Feature","properties":{"Name":"Perez Elementary School","Address":"7500 S. Pleasant Valley Road","City":"Austin","State":"TX","Zip code":"78744","Latitude":"30.186918","Longitude":"-97.746349","Accuracy Score":"0.8","Accuracy Type":"street_center","Number":"","Street":"S Pleasant Valley Rd","City2":"Austin","State2":"TX","County":"Travis County","Zip":"78744","Country":"Travis County","Census Year":"2015","State FIPS":"48","County FIPS":"48453","Place FIPS":"4805000","Census Tract Code":"2412","Census Block Code":"2013","Census Block Group":"2"},"geometry":{"type":"Point","coordinates":[-97.746349,30.186918]}},{"type":"Feature","properties":{"Name":"Pickle Elementary School","Address":"1101 Wheatley Ave.","City":"Austin","State":"TX","Zip code":"78752","Latitude":"30.333494","Longitude":"-97.693304","Accuracy Score":"1","Accuracy Type":"range_interpolation","Number":"1101","Street":"Wheatley Ave","City2":"Austin","State2":"TX","County":"Travis County","Zip":"78752","Country":"Travis County","Census Year":"2015","State FIPS":"48","County FIPS":"48453","Place FIPS":"4805000","Census Tract Code":"1812","Census Block Code":"3021","Census Block Group":"3"},"geometry":{"type":"Point","coordinates":[-97.693304,30.333494]}},{"type":"Feature","properties":{"Name":"Pillow Elementary School","Address":"3025 Crosscreek Drive","City":"Austin","State":"TX","Zip code":"78757","Latitude":"30.369187","Longitude":"-97.732626","Accuracy Score":"1","Accuracy Type":"range_interpolation","Number":"3025","Street":"Crosscreek Dr","City2":"Austin","State2":"TX","County":"Travis County","Zip":"78757","Country":"Travis County","Census Year":"2015","State FIPS":"48","County FIPS":"48453","Place FIPS":"4805000","Census Tract Code":"1817","Census Block Code":"3018","Census Block Group":"3"},"geometry":{"type":"Point","coordinates":[-97.732626,30.369187]}},{"type":"Feature","properties":{"Name":"Pleasant Hill Elementary School","Address":"6405 Circle S Road","City":"Austin","State":"TX","Zip code":"78745","Latitude":"30.195119","Longitude":"-97.7768","Accuracy Score":"1","Accuracy Type":"range_interpolation","Number":"6405","Street":"Circle S Rd","City2":"Austin","State2":"TX","County":"Travis County","Zip":"78745","Country":"Travis County","Census Year":"2015","State FIPS":"48","County FIPS":"48453","Place FIPS":"4805000","Census Tract Code":"2402","Census Block Code":"4014","Census Block Group":"4"},"geometry":{"type":"Point","coordinates":[-97.7768,30.195119]}},{"type":"Feature","properties":{"Name":"Reilly Elementary School","Address":"405 Denson Drive","City":"Austin","State":"TX","Zip code":"78752","Latitude":"30.32843","Longitude":"-97.719669","Accuracy Score":"1","Accuracy Type":"range_interpolation","Number":"405","Street":"Denson Dr","City2":"Austin","State2":"TX","County":"Travis County","Zip":"78752","Country":"Travis County","Census Year":"2015","State FIPS":"48","County FIPS":"48453","Place FIPS":"4805000","Census Tract Code":"1503","Census Block Code":"3018","Census Block Group":"3"},"geometry":{"type":"Point","coordinates":[-97.719669,30.32843]}},{"type":"Feature","properties":{"Name":"Ridgetop Elementary School","Address":"5005 Caswell Ave.","City":"Austin","State":"TX","Zip code":"78751","Latitude":"30.311346","Longitude":"-97.717045","Accuracy Score":"1","Accuracy Type":"range_interpolation","Number":"5005","Street":"Caswell Ave","City2":"Austin","State2":"TX","County":"Travis County","Zip":"78751","Country":"Travis County","Census Year":"2015","State FIPS":"48","County FIPS":"48453","Place FIPS":"4805000","Census Tract Code":"304","Census Block Code":"2018","Census Block Group":"2"},"geometry":{"type":"Point","coordinates":[-97.717045,30.311346]}},{"type":"Feature","properties":{"Name":"Rodriguez Elementary School","Address":"4400 Franklin Park Drive","City":"Austin","State":"TX","Zip code":"78744","Latitude":"30.19928","Longitude":"-97.744512","Accuracy Score":"1","Accuracy Type":"range_interpolation","Number":"4400","Street":"Franklin Park Dr","City2":"Austin","State2":"TX","County":"Travis County","Zip":"78744","Country":"Travis County","Census Year":"2015","State FIPS":"48","County FIPS":"48453","Place FIPS":"4805000","Census Tract Code":"2411","Census Block Code":"1020","Census Block Group":"1"},"geometry":{"type":"Point","coordinates":[-97.744512,30.19928]}},{"type":"Feature","properties":{"Name":"Sanchez Elementary School","Address":"73 San Marcos St.","City":"Austin","State":"TX","Zip code":"78702","Latitude":"30.258114","Longitude":"-97.735589","Accuracy Score":"1","Accuracy Type":"range_interpolation","Number":"73","Street":"San Marcos St","City2":"Austin","State2":"TX","County":"Travis County","Zip":"78702","Country":"Travis County","Census Year":"2015","State FIPS":"48","County FIPS":"48453","Place FIPS":"4805000","Census Tract Code":"1000","Census Block Code":"1010","Census Block Group":"1"},"geometry":{"type":"Point","coordinates":[-97.735589,30.258114]}},{"type":"Feature","properties":{"Name":"Sims Elementary School","Address":"1203 Springdale Road","City":"Austin","State":"TX","Zip code":"78721","Latitude":"30.278929","Longitude":"-97.686879","Accuracy Score":"1","Accuracy Type":"range_interpolation","Number":"1203","Street":"Springdale Rd","City2":"Austin","State2":"TX","County":"Travis County","Zip":"78721","Country":"Travis County","Census Year":"2015","State FIPS":"48","County FIPS":"48453","Place FIPS":"4805000","Census Tract Code":"2109","Census Block Code":"3012","Census Block Group":"3"},"geometry":{"type":"Point","coordinates":[-97.686879,30.278929]}},{"type":"Feature","properties":{"Name":"St. Elmo Elementary School","Address":"600 W. St. Elmo Road","City":"Austin","State":"TX","Zip code":"78745","Latitude":"30.220892","Longitude":"-97.772877","Accuracy Score":"1","Accuracy Type":"range_interpolation","Number":"600","Street":"W St Elmo Rd","City2":"Austin","State2":"TX","County":"Travis County","Zip":"78745","Country":"Travis County","Census Year":"2015","State FIPS":"48","County FIPS":"48453","Place FIPS":"4805000","Census Tract Code":"2003","Census Block Code":"2005","Census Block Group":"2"},"geometry":{"type":"Point","coordinates":[-97.772877,30.220892]}},{"type":"Feature","properties":{"Name":"Summitt Elementary School","Address":"12207 Brigadoon Lane","City":"Austin","State":"TX","Zip code":"78727","Latitude":"30.418291","Longitude":"-97.720241","Accuracy Score":"1","Accuracy Type":"range_interpolation","Number":"12207","Street":"Brigadoon Ln","City2":"Austin","State2":"TX","County":"Travis County","Zip":"78727","Country":"Travis County","Census Year":"2015","State FIPS":"48","County FIPS":"48453","Place FIPS":"4805000","Census Tract Code":"1828","Census Block Code":"1018","Census Block Group":"1"},"geometry":{"type":"Point","coordinates":[-97.720241,30.418291]}},{"type":"Feature","properties":{"Name":"Sunset Valley Elementary School","Address":"3000 Jones Road","City":"Austin","State":"TX","Zip code":"78745","Latitude":"30.226636","Longitude":"-97.806356","Accuracy Score":"1","Accuracy Type":"range_interpolation","Number":"3000","Street":"Jones Rd","City2":"Austin","State2":"TX","County":"Travis County","Zip":"78745","Country":"Travis County","Census Year":"2015","State FIPS":"48","County FIPS":"48453","Place FIPS":"4805000","Census Tract Code":"1750","Census Block Code":"2015","Census Block Group":"2"},"geometry":{"type":"Point","coordinates":[-97.806356,30.226636]}},{"type":"Feature","properties":{"Name":"T. A. Brown Elementary School","Address":"505 W. Anderson Lane","City":"Austin","State":"TX","Zip code":"78752","Latitude":"30.33973","Longitude":"-97.701631","Accuracy Score":"1","Accuracy Type":"range_interpolation","Number":"505","Street":"W Anderson Ln","City2":"Austin","State2":"TX","County":"Travis County","Zip":"78752","Country":"Travis County","Census Year":"2015","State FIPS":"48","County FIPS":"48453","Place FIPS":"4805000","Census Tract Code":"1804","Census Block Code":"1002","Census Block Group":"1"},"geometry":{"type":"Point","coordinates":[-97.701631,30.33973]}},{"type":"Feature","properties":{"Name":"Travis Heights Elementary School","Address":"2010 Alameda Drive","City":"Austin","State":"TX","Zip code":"78704","Latitude":"30.241217","Longitude":"-97.745401","Accuracy Score":"0.8","Accuracy Type":"range_interpolation","Number":"2010","Street":"Alameda Dr","City2":"Austin","State2":"TX","County":"Travis County","Zip":"78704","Country":"Travis County","Census Year":"2015","State FIPS":"48","County FIPS":"48453","Place FIPS":"4805000","Census Tract Code":"1402","Census Block Code":"2019","Census Block Group":"2"},"geometry":{"type":"Point","coordinates":[-97.745401,30.241217]}},{"type":"Feature","properties":{"Name":"Uphaus Early Childhood Center","Address":"5200 Freidrich Lane","City":"Austin","State":"TX","Zip code":"78744","Latitude":"30.202427","Longitude":"-97.754626","Accuracy Score":"1","Accuracy Type":"range_interpolation","Number":"5200","Street":"Freidrich Ln","City2":"Austin","State2":"TX","County":"Travis County","Zip":"78744","Country":"Travis County","Census Year":"2015","State FIPS":"48","County FIPS":"48453","Place FIPS":"4805000","Census Tract Code":"2411","Census Block Code":"2003","Census Block Group":"2"},"geometry":{"type":"Point","coordinates":[-97.754626,30.202427]}},{"type":"Feature","properties":{"Name":"Walnut Creek Elementary School","Address":"401 W. Braker Lane","City":"Austin","State":"TX","Zip code":"78753","Latitude":"30.380806","Longitude":"-97.684638","Accuracy Score":"1","Accuracy Type":"range_interpolation","Number":"401","Street":"W Braker Ln","City2":"Austin","State2":"TX","County":"Travis County","Zip":"78753","Country":"Travis County","Census Year":"2015","State FIPS":"48","County FIPS":"48453","Place FIPS":"4805000","Census Tract Code":"1823","Census Block Code":"2000","Census Block Group":"2"},"geometry":{"type":"Point","coordinates":[-97.684638,30.380806]}},{"type":"Feature","properties":{"Name":"Webb Primary School","Address":"601 E. St. Johns St.","City":"Austin","State":"TX","Zip code":"78752","Latitude":"30.333392","Longitude":"-97.705754","Accuracy Score":"1","Accuracy Type":"range_interpolation","Number":"601","Street":"E St Johns Ave","City2":"Austin","State2":"TX","County":"Travis County","Zip":"78752","Country":"Travis County","Census Year":"2015","State FIPS":"48","County FIPS":"48453","Place FIPS":"4805000","Census Tract Code":"1503","Census Block Code":"4009","Census Block Group":"4"},"geometry":{"type":"Point","coordinates":[-97.705754,30.333392]}},{"type":"Feature","properties":{"Name":"Wid̩n Elementary School","Address":"5605 Nuckols Crossing","City":"Austin","State":"TX","Zip code":"78744","Latitude":"30.182283","Longitude":"-97.767057","Accuracy Score":"0.8","Accuracy Type":"street_center","Number":"","Street":"Nogales Trl","City2":"Austin","State2":"TX","County":"Travis County","Zip":"78744","Country":"Travis County","Census Year":"2015","State FIPS":"48","County FIPS":"48453","Place FIPS":"4805000","Census Tract Code":"2427","Census Block Code":"3015","Census Block Group":"3"},"geometry":{"type":"Point","coordinates":[-97.767057,30.182283]}},{"type":"Feature","properties":{"Name":"Williams Elementary School","Address":"500 Mairo St.","City":"Austin","State":"TX","Zip code":"78748","Latitude":"30.180601","Longitude":"-97.791823","Accuracy Score":"1","Accuracy Type":"range_interpolation","Number":"500","Street":"Mairo St","City2":"Austin","State2":"TX","County":"Travis County","Zip":"78748","Country":"Travis County","Census Year":"2015","State FIPS":"48","County FIPS":"48453","Place FIPS":"4805000","Census Tract Code":"2422","Census Block Code":"3023","Census Block Group":"3"},"geometry":{"type":"Point","coordinates":[-97.791823,30.180601]}},{"type":"Feature","properties":{"Name":"Wooldridge Elementary School","Address":"1412 Norseman Terrace","City":"Austin","State":"TX","Zip code":"78758","Latitude":"30.364542","Longitude":"-97.710056","Accuracy Score":"1","Accuracy Type":"range_interpolation","Number":"1412","Street":"Norseman Ter","City2":"Austin","State2":"TX","County":"Travis County","Zip":"78758","Country":"Travis County","Census Year":"2015","State FIPS":"48","County FIPS":"48453","Place FIPS":"4805000","Census Tract Code":"1820","Census Block Code":"3020","Census Block Group":"3"},"geometry":{"type":"Point","coordinates":[-97.710056,30.364542]}},{"type":"Feature","properties":{"Name":"Wooten Elementary School","Address":"1406 Dale St.","City":"Austin","State":"TX","Zip code":"78757","Latitude":"30.353043","Longitude":"-97.719101","Accuracy Score":"1","Accuracy Type":"range_interpolation","Number":"1406","Street":"Dale Dr","City2":"Austin","State2":"TX","County":"Travis County","Zip":"78757","Country":"Travis County","Census Year":"2015","State FIPS":"48","County FIPS":"48453","Place FIPS":"4805000","Census Tract Code":"1818","Census Block Code":"2026","Census Block Group":"2"},"geometry":{"type":"Point","coordinates":[-97.719101,30.353043]}},{"type":"Feature","properties":{"Name":"Zavala Elementary School","Address":"310 Robert Martinez Jr. St.","City":"Austin","State":"TX","Zip code":"78702","Latitude":"30.257852","Longitude":"-97.71992","Accuracy Score":"1","Accuracy Type":"range_interpolation","Number":"310","Street":"Robert Martinez Jr St","City2":"Austin","State2":"TX","County":"Travis County","Zip":"78702","Country":"Travis County","Census Year":"2015","State FIPS":"48","County FIPS":"48453","Place FIPS":"4805000","Census Tract Code":"902","Census Block Code":"3009","Census Block Group":"3"},"geometry":{"type":"Point","coordinates":[-97.71992,30.257852]}},{"type":"Feature","properties":{"Name":"Zilker Elementary School","Address":"1900 Bluebonnet Lane","City":"Austin","State":"TX","Zip code":"78704","Latitude":"30.25307","Longitude":"-97.773303","Accuracy Score":"1","Accuracy Type":"range_interpolation","Number":"1900","Street":"Bluebonnet Ln","City2":"Austin","State2":"TX","County":"Travis County","Zip":"78704","Country":"Travis County","Census Year":"2015","State FIPS":"48","County FIPS":"48453","Place FIPS":"4805000","Census Tract Code":"1304","Census Block Code":"2004","Census Block Group":"2"},"geometry":{"type":"Point","coordinates":[-97.773303,30.25307]}}]}
