{"type":"FeatureCollection","features":[{"type":"Feature","properties":{"Address":"100 32 ST W","City":"Austin","State":"Texas","Latitude":"30.296482","Longitude":"-97.736222","Accuracy Score":"1","Accuracy Type":"range_interpolation","Number":"100","Street":"E 32nd St","City2":"Austin","State2":"TX","County":"Travis County","Zip":"78705","Country":"Travis County"},"geometry":{"type":"Point","coordinates":[-97.736222,30.296482]}},{"type":"Feature","properties":{"Address":"200 32 ST W","City":"Austin","State":"Texas","Latitude":"30.296218","Longitude":"-97.735659","Accuracy Score":"1","Accuracy Type":"range_interpolation","Number":"200","Street":"E 32nd St","City2":"Austin","State2":"TX","County":"Travis County","Zip":"78705","Country":"Travis County"},"geometry":{"type":"Point","coordinates":[-97.735659,30.296218]}},{"type":"Feature","properties":{"Address":"100 33 ST W","City":"Austin","State":"Texas","Latitude":"30.297476","Longitude":"-97.7356","Accuracy Score":"1","Accuracy Type":"range_interpolation","Number":"100","Street":"E 33rd St","City2":"Austin","State2":"TX","County":"Travis County","Zip":"78705","Country":"Travis County"},"geometry":{"type":"Point","coordinates":[-97.7356,30.297476]}},{"type":"Feature","properties":{"Address":"100 LAUREL LA","City":"Austin","State":"Texas","Latitude":"30.295864","Longitude":"-97.736426","Accuracy Score":"1","Accuracy Type":"range_interpolation","Number":"100","Street":"Laurel Ln","City2":"Austin","State2":"TX","County":"Travis County","Zip":"78705","Country":"Travis County"},"geometry":{"type":"Point","coordinates":[-97.736426,30.295864]}},{"type":"Feature","properties":{"Address":"3200 LIPSCOMB ST","City":"Austin","State":"Texas","Latitude":"30.29756","Longitude":"-97.737552","Accuracy Score":"1","Accuracy Type":"range_interpolation","Number":"3200","Street":"Lipscomb St","City2":"Austin","State2":"TX","County":"Travis County","Zip":"78705","Country":"Travis County"},"geometry":{"type":"Point","coordinates":[-97.737552,30.29756]}},{"type":"Feature","properties":{"Address":"300 MOORE BLVD","City":"Austin","State":"Texas","Latitude":"30.2953","Longitude":"-97.735192","Accuracy Score":"1","Accuracy Type":"range_interpolation","Number":"300","Street":"Moore Blvd","City2":"Austin","State2":"TX","County":"Travis County","Zip":"78705","Country":"Travis County"},"geometry":{"type":"Point","coordinates":[-97.735192,30.2953]}},{"type":"Feature","properties":{"Address":"500 BELLEVUE PL","City":"Austin","State":"Texas","Latitude":"30.29205","Longitude":"-97.734104","Accuracy Score":"1","Accuracy Type":"range_interpolation","Number":"500","Street":"Bellevue Pl","City2":"Austin","State2":"TX","County":"Travis County","Zip":"78705","Country":"Travis County"},"geometry":{"type":"Point","coordinates":[-97.734104,30.29205]}},{"type":"Feature","properties":{"Address":"600 BELLEVUE PL","City":"Austin","State":"Texas","Latitude":"30.291572","Longitude":"-97.733207","Accuracy Score":"1","Accuracy Type":"range_interpolation","Number":"600","Street":"Bellevue Pl","City2":"Austin","State2":"TX","County":"Travis County","Zip":"78705","Country":"Travis County"},"geometry":{"type":"Point","coordinates":[-97.733207,30.291572]}},{"type":"Feature","properties":{"Address":"700 SPARKS AVE","City":"Austin","State":"Texas","Latitude":"30.292242","Longitude":"-97.731553","Accuracy Score":"1","Accuracy Type":"range_interpolation","Number":"700","Street":"Sparks Ave","City2":"Austin","State2":"TX","County":"Travis County","Zip":"78705","Country":"Travis County"},"geometry":{"type":"Point","coordinates":[-97.731553,30.292242]}},{"type":"Feature","properties":{"Address":"2900 BEANNA ST","City":"Austin","State":"Texas","Latitude":"30.289923","Longitude":"-97.730055","Accuracy Score":"1","Accuracy Type":"range_interpolation","Number":"2900","Street":"Beanna St","City2":"Austin","State2":"TX","County":"Travis County","Zip":"78705","Country":"Travis County"},"geometry":{"type":"Point","coordinates":[-97.730055,30.289923]}},{"type":"Feature","properties":{"Address":"500 RATHERVUE PL","City":"Austin","State":"Texas","Latitude":"30.292823","Longitude":"-97.733605","Accuracy Score":"1","Accuracy Type":"range_interpolation","Number":"500","Street":"Rathervue Pl","City2":"Austin","State2":"TX","County":"Travis County","Zip":"78705","Country":"Travis County"},"geometry":{"type":"Point","coordinates":[-97.733605,30.292823]}},{"type":"Feature","properties":{"Address":"600 RATHERVUE PL","City":"Austin","State":"Texas","Latitude":"30.292342","Longitude":"-97.732707","Accuracy Score":"1","Accuracy Type":"range_interpolation","Number":"600","Street":"Rathervue Pl","City2":"Austin","State2":"TX","County":"Travis County","Zip":"78705","Country":"Travis County"},"geometry":{"type":"Point","coordinates":[-97.732707,30.292342]}},{"type":"Feature","properties":{"Address":"800 30 ST E","City":"Austin","State":"Texas","Latitude":"30.290838","Longitude":"-97.730238","Accuracy Score":"1","Accuracy Type":"range_interpolation","Number":"800","Street":"E 30th St","City2":"Austin","State2":"TX","County":"Travis County","Zip":"78705","Country":"Travis County"},"geometry":{"type":"Point","coordinates":[-97.730238,30.290838]}},{"type":"Feature","properties":{"Address":"3000 HARRIS PARK AVE","City":"Austin","State":"Texas","Latitude":"30.291141","Longitude":"-97.732214","Accuracy Score":"1","Accuracy Type":"range_interpolation","Number":"3000","Street":"Harris Park Ave","City2":"Austin","State2":"TX","County":"Travis County","Zip":"78705","Country":"Travis County"},"geometry":{"type":"Point","coordinates":[-97.732214,30.291141]}},{"type":"Feature","properties":{"Address":"800 31 ST E","City":"Austin","State":"Texas","Latitude":"30.291207","Longitude":"-97.729428","Accuracy Score":"1","Accuracy Type":"range_interpolation","Number":"800","Street":"E 31st St","City2":"Austin","State2":"TX","County":"Travis County","Zip":"78705","Country":"Travis County"},"geometry":{"type":"Point","coordinates":[-97.729428,30.291207]}},{"type":"Feature","properties":{"Address":"200 32 ST E","City":"Austin","State":"Texas","Latitude":"30.296218","Longitude":"-97.735659","Accuracy Score":"1","Accuracy Type":"range_interpolation","Number":"200","Street":"E 32nd St","City2":"Austin","State2":"TX","County":"Travis County","Zip":"78705","Country":"Travis County"},"geometry":{"type":"Point","coordinates":[-97.735659,30.296218]}},{"type":"Feature","properties":{"Address":"3200 GROOMS ST","City":"Austin","State":"Texas","Latitude":"30.295801","Longitude":"-97.734805","Accuracy Score":"1","Accuracy Type":"range_interpolation","Number":"3200","Street":"Grooms St","City2":"Austin","State2":"TX","County":"Travis County","Zip":"78705","Country":"Travis County"},"geometry":{"type":"Point","coordinates":[-97.734805,30.295801]}},{"type":"Feature","properties":{"Address":"200 35 ST E","City":"Austin","State":"Texas","Latitude":"30.134047","Longitude":"-97.798495","Accuracy Score":"0.8","Accuracy Type":"street_center","Number":"","Street":"I- 35","City2":"Austin","State2":"TX","County":"Travis County","Zip":"78747","Country":"Travis County"},"geometry":{"type":"Point","coordinates":[-97.798495,30.134047]}},{"type":"Feature","properties":{"Address":"2600 RICHCREEK RD","City":"Austin","State":"Texas","Latitude":"30.351293","Longitude":"-97.73629","Accuracy Score":"1","Accuracy Type":"range_interpolation","Number":"2600","Street":"Richcreek Rd","City2":"Austin","State2":"TX","County":"Travis County","Zip":"78757","Country":"Travis County"},"geometry":{"type":"Point","coordinates":[-97.73629,30.351293]}},{"type":"Feature","properties":{"Address":"2700 RICHCREEK RD","City":"Austin","State":"Texas","Latitude":"30.352267","Longitude":"-97.738216","Accuracy Score":"1","Accuracy Type":"range_interpolation","Number":"2700","Street":"Richcreek Rd","City2":"Austin","State2":"TX","County":"Travis County","Zip":"78757","Country":"Travis County"},"geometry":{"type":"Point","coordinates":[-97.738216,30.352267]}},{"type":"Feature","properties":{"Address":"500 ELMWOOD PL","City":"Austin","State":"Texas","Latitude":"30.291244","Longitude":"-97.734546","Accuracy Score":"1","Accuracy Type":"range_interpolation","Number":"500","Street":"Elmwood Pl","City2":"Austin","State2":"TX","County":"Travis County","Zip":"78705","Country":"Travis County"},"geometry":{"type":"Point","coordinates":[-97.734546,30.291244]}},{"type":"Feature","properties":{"Address":"600 ELMWOOD PL","City":"Austin","State":"Texas","Latitude":"30.2908","Longitude":"-97.733686","Accuracy Score":"1","Accuracy Type":"range_interpolation","Number":"600","Street":"Elmwood Pl","City2":"Austin","State2":"TX","County":"Travis County","Zip":"78705","Country":"Travis County"},"geometry":{"type":"Point","coordinates":[-97.733686,30.2908]}},{"type":"Feature","properties":{"Address":"3200 LIBERTY ST","City":"Austin","State":"Texas","Latitude":"30.293555","Longitude":"-97.731994","Accuracy Score":"1","Accuracy Type":"range_interpolation","Number":"3200","Street":"Liberty St","City2":"Austin","State2":"TX","County":"Travis County","Zip":"78705","Country":"Travis County"},"geometry":{"type":"Point","coordinates":[-97.731994,30.293555]}},{"type":"Feature","properties":{"Address":"2600 10 ST W","City":"Austin","State":"Texas","Latitude":"29.433147","Longitude":"-98.478991","Accuracy Score":"0.8","Accuracy Type":"street_center","Number":"","Street":"10th St","City2":"San Antonio","State2":"TX","County":"Bexar County","Zip":"78215","Country":"Bexar County"},"geometry":{"type":"Point","coordinates":[-98.478991,29.433147]}},{"type":"Feature","properties":{"Address":"2700 10 ST W","City":"Austin","State":"Texas","Latitude":"29.433147","Longitude":"-98.478991","Accuracy Score":"0.8","Accuracy Type":"street_center","Number":"","Street":"10th St","City2":"San Antonio","State2":"TX","County":"Bexar County","Zip":"78215","Country":"Bexar County"},"geometry":{"type":"Point","coordinates":[-98.478991,29.433147]}},{"type":"Feature","properties":{"Address":"700 LANDON LA","City":"Austin","State":"Texas","Latitude":"30.294429","Longitude":"-97.730217","Accuracy Score":"1","Accuracy Type":"range_interpolation","Number":"700","Street":"Landon Ln","City2":"Austin","State2":"TX","County":"Travis County","Zip":"78705","Country":"Travis County"},"geometry":{"type":"Point","coordinates":[-97.730217,30.294429]}},{"type":"Feature","properties":{"Address":"800 16 ST W","City":"Austin","State":"Texas","Latitude":"30.279952","Longitude":"-97.746935","Accuracy Score":"1","Accuracy Type":"range_interpolation","Number":"800","Street":"W 16th St","City2":"Austin","State2":"TX","County":"Travis County","Zip":"78701","Country":"Travis County"},"geometry":{"type":"Point","coordinates":[-97.746935,30.279952]}},{"type":"Feature","properties":{"Address":"900 16 ST W","City":"Austin","State":"Texas","Latitude":"30.280322","Longitude":"-97.748253","Accuracy Score":"1","Accuracy Type":"range_interpolation","Number":"900","Street":"W 16th St","City2":"Austin","State2":"TX","County":"Travis County","Zip":"78701","Country":"Travis County"},"geometry":{"type":"Point","coordinates":[-97.748253,30.280322]}},{"type":"Feature","properties":{"Address":"800 17 ST W","City":"Austin","State":"Texas","Latitude":"30.280827","Longitude":"-97.746598","Accuracy Score":"1","Accuracy Type":"range_interpolation","Number":"800","Street":"W 17th St","City2":"Austin","State2":"TX","County":"Travis County","Zip":"78701","Country":"Travis County"},"geometry":{"type":"Point","coordinates":[-97.746598,30.280827]}},{"type":"Feature","properties":{"Address":"900 18 ST W","City":"Austin","State":"Texas","Latitude":"30.282071","Longitude":"-97.747586","Accuracy Score":"1","Accuracy Type":"range_interpolation","Number":"900","Street":"W 18th St","City2":"Austin","State2":"TX","County":"Travis County","Zip":"78701","Country":"Travis County"},"geometry":{"type":"Point","coordinates":[-97.747586,30.282071]}},{"type":"Feature","properties":{"Address":"1700 PEARL ST","City":"Austin","State":"Texas","Latitude":"30.281504","Longitude":"-97.747897","Accuracy Score":"1","Accuracy Type":"range_interpolation","Number":"1700","Street":"Pearl St","City2":"Austin","State2":"TX","County":"Travis County","Zip":"78701","Country":"Travis County"},"geometry":{"type":"Point","coordinates":[-97.747897,30.281504]}},{"type":"Feature","properties":{"Address":"1800 PEARL ST","City":"Austin","State":"Texas","Latitude":"30.282371","Longitude":"-97.747586","Accuracy Score":"1","Accuracy Type":"range_interpolation","Number":"1800","Street":"Pearl St","City2":"Austin","State2":"TX","County":"Travis County","Zip":"78701","Country":"Travis County"},"geometry":{"type":"Point","coordinates":[-97.747586,30.282371]}},{"type":"Feature","properties":{"Address":"1800 SAN GABRIEL ST","City":"Austin","State":"Texas","Latitude":"30.282692","Longitude":"-97.748746","Accuracy Score":"1","Accuracy Type":"range_interpolation","Number":"1800","Street":"San Gabriel St","City2":"Austin","State2":"TX","County":"Travis County","Zip":"78701","Country":"Travis County"},"geometry":{"type":"Point","coordinates":[-97.748746,30.282692]}},{"type":"Feature","properties":{"Address":"3700 BONNIE RD","City":"Austin","State":"Texas","Latitude":"30.296113","Longitude":"-97.781796","Accuracy Score":"1","Accuracy Type":"range_interpolation","Number":"3700","Street":"Bonnie Rd","City2":"Austin","State2":"TX","County":"Travis County","Zip":"78703","Country":"Travis County"},"geometry":{"type":"Point","coordinates":[-97.781796,30.296113]}},{"type":"Feature","properties":{"Address":"3700 BRIDLE PATH","City":"Austin","State":"Texas","Latitude":"30.296908","Longitude":"-97.781311","Accuracy Score":"1","Accuracy Type":"range_interpolation","Number":"3700","Street":"Bridle Path","City2":"Austin","State2":"TX","County":"Travis County","Zip":"78703","Country":"Travis County"},"geometry":{"type":"Point","coordinates":[-97.781311,30.296908]}},{"type":"Feature","properties":{"Address":"600 BAYLOR ST","City":"Austin","State":"Texas","Latitude":"30.272089","Longitude":"-97.754978","Accuracy Score":"1","Accuracy Type":"range_interpolation","Number":"600","Street":"Baylor St","City2":"Austin","State2":"TX","County":"Travis County","Zip":"78703","Country":"Travis County"},"geometry":{"type":"Point","coordinates":[-97.754978,30.272089]}},{"type":"Feature","properties":{"Address":"700 BAYLOR ST","City":"Austin","State":"Texas","Latitude":"30.27334","Longitude":"-97.754358","Accuracy Score":"1","Accuracy Type":"range_interpolation","Number":"700","Street":"Baylor St","City2":"Austin","State2":"TX","County":"Travis County","Zip":"78703","Country":"Travis County"},"geometry":{"type":"Point","coordinates":[-97.754358,30.27334]}},{"type":"Feature","properties":{"Address":"800 BAYLOR ST","City":"Austin","State":"Texas","Latitude":"30.273804","Longitude":"-97.754254","Accuracy Score":"1","Accuracy Type":"range_interpolation","Number":"800","Street":"Baylor St","City2":"Austin","State2":"TX","County":"Travis County","Zip":"78703","Country":"Travis County"},"geometry":{"type":"Point","coordinates":[-97.754254,30.273804]}},{"type":"Feature","properties":{"Address":"3200 FAIRFAX WALK","City":"Austin","State":"Texas","Latitude":"30.292643","Longitude":"-97.730057","Accuracy Score":"1","Accuracy Type":"range_interpolation","Number":"3200","Street":"Fairfax Walk","City2":"Austin","State2":"TX","County":"Travis County","Zip":"78705","Country":"Travis County"},"geometry":{"type":"Point","coordinates":[-97.730057,30.292643]}},{"type":"Feature","properties":{"Address":"1100 07 ST W","City":"Austin","State":"Texas","Latitude":"29.524369","Longitude":"-98.32002","Accuracy Score":"0.8","Accuracy Type":"range_interpolation","Number":"1100","Street":"7th St","City2":"Converse","State2":"TX","County":"Bexar County","Zip":"78109","Country":"Bexar County"},"geometry":{"type":"Point","coordinates":[-98.32002,29.524369]}},{"type":"Feature","properties":{"Address":"1000 09 ST W","City":"Austin","State":"Texas","Latitude":"30.271968","Longitude":"-97.745234","Accuracy Score":"0.8","Accuracy Type":"street_center","Number":"","Street":"W 9th St","City2":"Austin","State2":"TX","County":"Travis County","Zip":"78701","Country":"Travis County"},"geometry":{"type":"Point","coordinates":[-97.745234,30.271968]}},{"type":"Feature","properties":{"Address":"1100 09 ST W","City":"Austin","State":"Texas","Latitude":"30.271968","Longitude":"-97.745234","Accuracy Score":"0.8","Accuracy Type":"street_center","Number":"","Street":"W 9th St","City2":"Austin","State2":"TX","County":"Travis County","Zip":"78701","Country":"Travis County"},"geometry":{"type":"Point","coordinates":[-97.745234,30.271968]}},{"type":"Feature","properties":{"Address":"3200 TOM GREEN ST","City":"Austin","State":"Texas","Latitude":"30.295238","Longitude":"-97.733624","Accuracy Score":"1","Accuracy Type":"range_interpolation","Number":"3200","Street":"Tom Green St","City2":"Austin","State2":"TX","County":"Travis County","Zip":"78705","Country":"Travis County"},"geometry":{"type":"Point","coordinates":[-97.733624,30.295238]}},{"type":"Feature","properties":{"Address":"3000 HEMPHILL PARK","City":"Austin","State":"Texas","Latitude":"30.295784","Longitude":"-97.740241","Accuracy Score":"1","Accuracy Type":"range_interpolation","Number":"3000","Street":"Hemphill Park","City2":"Austin","State2":"TX","County":"Travis County","Zip":"78705","Country":"Travis County"},"geometry":{"type":"Point","coordinates":[-97.740241,30.295784]}},{"type":"Feature","properties":{"Address":"1700 SAN GABRIEL ST","City":"Austin","State":"Texas","Latitude":"30.281858","Longitude":"-97.749085","Accuracy Score":"1","Accuracy Type":"range_interpolation","Number":"1700","Street":"San Gabriel St","City2":"Austin","State2":"TX","County":"Travis County","Zip":"78701","Country":"Travis County"},"geometry":{"type":"Point","coordinates":[-97.749085,30.281858]}},{"type":"Feature","properties":{"Address":"300 32 ST E","City":"Austin","State":"Texas","Latitude":"30.295801","Longitude":"-97.734805","Accuracy Score":"1","Accuracy Type":"range_interpolation","Number":"300","Street":"E 32nd St","City2":"Austin","State2":"TX","County":"Travis County","Zip":"78705","Country":"Travis County"},"geometry":{"type":"Point","coordinates":[-97.734805,30.295801]}},{"type":"Feature","properties":{"Address":"3100 HEMPHILL PARK","City":"Austin","State":"Texas","Latitude":"30.297011","Longitude":"-97.739493","Accuracy Score":"1","Accuracy Type":"range_interpolation","Number":"3100","Street":"Hemphill Park","City2":"Austin","State2":"TX","County":"Travis County","Zip":"78705","Country":"Travis County"},"geometry":{"type":"Point","coordinates":[-97.739493,30.297011]}},{"type":"Feature","properties":{"Address":"10200 SALIDA DR","City":"Austin","State":"Texas","Latitude":"30.183163","Longitude":"-97.858238","Accuracy Score":"1","Accuracy Type":"range_interpolation","Number":"10200","Street":"Salida Dr","City2":"Austin","State2":"TX","County":"Travis County","Zip":"78749","Country":"Travis County"},"geometry":{"type":"Point","coordinates":[-97.858238,30.183163]}},{"type":"Feature","properties":{"Address":"3900 SAWMILL DR","City":"Austin","State":"Texas","Latitude":"30.184215","Longitude":"-97.857621","Accuracy Score":"1","Accuracy Type":"range_interpolation","Number":"3900","Street":"Sawmill Dr","City2":"Austin","State2":"TX","County":"Travis County","Zip":"78749","Country":"Travis County"},"geometry":{"type":"Point","coordinates":[-97.857621,30.184215]}},{"type":"Feature","properties":{"Address":"3800 SAWMILL DR","City":"Austin","State":"Texas","Latitude":"30.182881","Longitude":"-97.855354","Accuracy Score":"1","Accuracy Type":"range_interpolation","Number":"3800","Street":"Sawmill Dr","City2":"Austin","State2":"TX","County":"Travis County","Zip":"78749","Country":"Travis County"},"geometry":{"type":"Point","coordinates":[-97.855354,30.182881]}},{"type":"Feature","properties":{"Address":"500 HARRIS AVE","City":"Austin","State":"Texas","Latitude":"30.296199","Longitude":"-97.731468","Accuracy Score":"1","Accuracy Type":"range_interpolation","Number":"500","Street":"Harris Ave","City2":"Austin","State2":"TX","County":"Travis County","Zip":"78705","Country":"Travis County"},"geometry":{"type":"Point","coordinates":[-97.731468,30.296199]}},{"type":"Feature","properties":{"Address":"3500 HAMPTON RD","City":"Austin","State":"Texas","Latitude":"30.294789","Longitude":"-97.726261","Accuracy Score":"1","Accuracy Type":"range_interpolation","Number":"3500","Street":"Hampton Rd","City2":"Austin","State2":"TX","County":"Travis County","Zip":"78705","Country":"Travis County"},"geometry":{"type":"Point","coordinates":[-97.726261,30.294789]}},{"type":"Feature","properties":{"Address":"800 32 ST E 1/2","City":"Austin","State":"Texas","Latitude":"30.292159","Longitude":"-97.729072","Accuracy Score":"1","Accuracy Type":"range_interpolation","Number":"800","Street":"E 32nd St","City2":"Austin","State2":"TX","County":"Travis County","Zip":"78705","Country":"Travis County"},"geometry":{"type":"Point","coordinates":[-97.729072,30.292159]}},{"type":"Feature","properties":{"Address":"3200 BEANNA ST","City":"Austin","State":"Texas","Latitude":"30.291985","Longitude":"-97.728721","Accuracy Score":"1","Accuracy Type":"range_interpolation","Number":"3200","Street":"Beanna St","City2":"Austin","State2":"TX","County":"Travis County","Zip":"78705","Country":"Travis County"},"geometry":{"type":"Point","coordinates":[-97.728721,30.291985]}},{"type":"Feature","properties":{"Address":"1200 39 ST W","City":"Austin","State":"Texas","Latitude":"30.308116","Longitude":"-97.743498","Accuracy Score":"1","Accuracy Type":"range_interpolation","Number":"1200","Street":"W 39th St","City2":"Austin","State2":"TX","County":"Travis County","Zip":"78756","Country":"Travis County"},"geometry":{"type":"Point","coordinates":[-97.743498,30.308116]}},{"type":"Feature","properties":{"Address":"2800 DANCY ST","City":"Austin","State":"Texas","Latitude":"30.2859","Longitude":"-97.722461","Accuracy Score":"1","Accuracy Type":"range_interpolation","Number":"2800","Street":"Dancy St","City2":"Austin","State2":"TX","County":"Travis County","Zip":"78722","Country":"Travis County"},"geometry":{"type":"Point","coordinates":[-97.722461,30.2859]}},{"type":"Feature","properties":{"Address":"1200 28 ST E","City":"Austin","State":"Texas","Latitude":"30.286404","Longitude":"-97.723367","Accuracy Score":"1","Accuracy Type":"range_interpolation","Number":"1200","Street":"E 28th St","City2":"Austin","State2":"TX","County":"Travis County","Zip":"78722","Country":"Travis County"},"geometry":{"type":"Point","coordinates":[-97.723367,30.286404]}},{"type":"Feature","properties":{"Address":"3200 HEMPHILL PARK E","City":"Austin","State":"Texas","Latitude":"30.298181","Longitude":"-97.739156","Accuracy Score":"1","Accuracy Type":"range_interpolation","Number":"3200","Street":"Hemphill Park","City2":"Austin","State2":"TX","County":"Travis County","Zip":"78705","Country":"Travis County"},"geometry":{"type":"Point","coordinates":[-97.739156,30.298181]}},{"type":"Feature","properties":{"Address":"3100 WHEELER ST","City":"Austin","State":"Texas","Latitude":"30.297011","Longitude":"-97.739493","Accuracy Score":"1","Accuracy Type":"range_interpolation","Number":"3100","Street":"Wheeler St","City2":"Austin","State2":"TX","County":"Travis County","Zip":"78705","Country":"Travis County"},"geometry":{"type":"Point","coordinates":[-97.739493,30.297011]}},{"type":"Feature","properties":{"Address":"1900 CLIFF ST","City":"Austin","State":"Texas","Latitude":"30.284707","Longitude":"-97.751909","Accuracy Score":"1","Accuracy Type":"range_interpolation","Number":"1900","Street":"Cliff St","City2":"Austin","State2":"TX","County":"Travis County","Zip":"78705","Country":"Travis County"},"geometry":{"type":"Point","coordinates":[-97.751909,30.284707]}},{"type":"Feature","properties":{"Address":"1900 DAVID ST","City":"Austin","State":"Texas","Latitude":"30.28432","Longitude":"-97.75063","Accuracy Score":"1","Accuracy Type":"range_interpolation","Number":"1900","Street":"David St","City2":"Austin","State2":"TX","County":"Travis County","Zip":"78705","Country":"Travis County"},"geometry":{"type":"Point","coordinates":[-97.75063,30.28432]}},{"type":"Feature","properties":{"Address":"2000 LONGVIEW ST","City":"Austin","State":"Texas","Latitude":"30.286483","Longitude":"-97.751114","Accuracy Score":"0.8","Accuracy Type":"street_center","Number":"","Street":"Longview St","City2":"Austin","State2":"TX","County":"Travis County","Zip":"78705","Country":"Travis County"},"geometry":{"type":"Point","coordinates":[-97.751114,30.286483]}},{"type":"Feature","properties":{"Address":"1100 22 ST W 1/2","City":"Austin","State":"Texas","Latitude":"30.286346","Longitude":"-97.749528","Accuracy Score":"0.9","Accuracy Type":"range_interpolation","Number":"1100","Street":"W 22 1/2 St","City2":"Austin","State2":"TX","County":"Travis County","Zip":"78705","Country":"Travis County"},"geometry":{"type":"Point","coordinates":[-97.749528,30.286346]}},{"type":"Feature","properties":{"Address":"10200 WOLFTRAP DR","City":"Austin","State":"Texas","Latitude":"30.18351","Longitude":"-97.856783","Accuracy Score":"1","Accuracy Type":"range_interpolation","Number":"10200","Street":"Wolftrap Dr","City2":"Austin","State2":"TX","County":"Travis County","Zip":"78749","Country":"Travis County"},"geometry":{"type":"Point","coordinates":[-97.856783,30.18351]}},{"type":"Feature","properties":{"Address":"10300 WOLFTRAP DR","City":"Austin","State":"Texas","Latitude":"30.182846","Longitude":"-97.857355","Accuracy Score":"1","Accuracy Type":"range_interpolation","Number":"10300","Street":"Wolftrap Dr","City2":"Austin","State2":"TX","County":"Travis County","Zip":"78749","Country":"Travis County"},"geometry":{"type":"Point","coordinates":[-97.857355,30.182846]}},{"type":"Feature","properties":{"Address":"10400 WOLFTRAP DR","City":"Austin","State":"Texas","Latitude":"30.181397","Longitude":"-97.858317","Accuracy Score":"1","Accuracy Type":"range_interpolation","Number":"10400","Street":"Wolftrap Dr","City2":"Austin","State2":"TX","County":"Travis County","Zip":"78749","Country":"Travis County"},"geometry":{"type":"Point","coordinates":[-97.858317,30.181397]}},{"type":"Feature","properties":{"Address":"2200 LONGVIEW ST","City":"Austin","State":"Texas","Latitude":"30.28587","Longitude":"-97.751184","Accuracy Score":"1","Accuracy Type":"range_interpolation","Number":"2200","Street":"Longview St","City2":"Austin","State2":"TX","County":"Travis County","Zip":"78705","Country":"Travis County"},"geometry":{"type":"Point","coordinates":[-97.751184,30.28587]}},{"type":"Feature","properties":{"Address":"2300 LONGVIEW ST","City":"Austin","State":"Texas","Latitude":"30.287208","Longitude":"-97.750954","Accuracy Score":"1","Accuracy Type":"range_interpolation","Number":"2300","Street":"Longview St","City2":"Austin","State2":"TX","County":"Travis County","Zip":"78705","Country":"Travis County"},"geometry":{"type":"Point","coordinates":[-97.750954,30.287208]}},{"type":"Feature","properties":{"Address":"5300 AURORA DR","City":"Austin","State":"Texas","Latitude":"30.322997","Longitude":"-97.733044","Accuracy Score":"1","Accuracy Type":"range_interpolation","Number":"5300","Street":"Aurora Dr","City2":"Austin","State2":"TX","County":"Travis County","Zip":"78756","Country":"Travis County"},"geometry":{"type":"Point","coordinates":[-97.733044,30.322997]}},{"type":"Feature","properties":{"Address":"5400 AURORA DR","City":"Austin","State":"Texas","Latitude":"30.323975","Longitude":"-97.732586","Accuracy Score":"1","Accuracy Type":"range_interpolation","Number":"5400","Street":"Aurora Dr","City2":"Austin","State2":"TX","County":"Travis County","Zip":"78756","Country":"Travis County"},"geometry":{"type":"Point","coordinates":[-97.732586,30.323975]}},{"type":"Feature","properties":{"Address":"600 HARTHAN ST","City":"Austin","State":"Texas","Latitude":"30.273209","Longitude":"-97.757936","Accuracy Score":"1","Accuracy Type":"range_interpolation","Number":"600","Street":"Harthan St","City2":"Austin","State2":"TX","County":"Travis County","Zip":"78703","Country":"Travis County"},"geometry":{"type":"Point","coordinates":[-97.757936,30.273209]}},{"type":"Feature","properties":{"Address":"3800 BAILEY LA","City":"Austin","State":"Texas","Latitude":"30.306559","Longitude":"-97.745705","Accuracy Score":"1","Accuracy Type":"range_interpolation","Number":"3800","Street":"Bailey Ln","City2":"Austin","State2":"TX","County":"Travis County","Zip":"78756","Country":"Travis County"},"geometry":{"type":"Point","coordinates":[-97.745705,30.306559]}},{"type":"Feature","properties":{"Address":"1200 39 ST 1/2 W","City":"Austin","State":"Texas","Latitude":"30.308116","Longitude":"-97.743498","Accuracy Score":"1","Accuracy Type":"range_interpolation","Number":"1200","Street":"W 39th St","City2":"Austin","State2":"TX","County":"Travis County","Zip":"78756","Country":"Travis County"},"geometry":{"type":"Point","coordinates":[-97.743498,30.308116]}},{"type":"Feature","properties":{"Address":"2200 RIVERVIEW ST","City":"Austin","State":"Texas","Latitude":"30.250473","Longitude":"-97.7232","Accuracy Score":"1","Accuracy Type":"range_interpolation","Number":"2200","Street":"Riverview St","City2":"Austin","State2":"TX","County":"Travis County","Zip":"78702","Country":"Travis County"},"geometry":{"type":"Point","coordinates":[-97.7232,30.250473]}},{"type":"Feature","properties":{"Address":"4300 MARATHON BLVD","City":"Austin","State":"Texas","Latitude":"30.311675","Longitude":"-97.740339","Accuracy Score":"1","Accuracy Type":"range_interpolation","Number":"4300","Street":"Marathon Blvd","City2":"Austin","State2":"TX","County":"Travis County","Zip":"78756","Country":"Travis County"},"geometry":{"type":"Point","coordinates":[-97.740339,30.311675]}},{"type":"Feature","properties":{"Address":"100 MILTON ST W","City":"Austin","State":"Texas","Latitude":"30.246874","Longitude":"-97.750625","Accuracy Score":"1","Accuracy Type":"range_interpolation","Number":"100","Street":"Milton St W","City2":"Austin","State2":"TX","County":"Travis County","Zip":"78704","Country":"Travis County"},"geometry":{"type":"Point","coordinates":[-97.750625,30.246874]}},{"type":"Feature","properties":{"Address":"100 35 ST W","City":"Austin","State":"Texas","Latitude":"30.134047","Longitude":"-97.798495","Accuracy Score":"0.8","Accuracy Type":"street_center","Number":"","Street":"I- 35","City2":"Austin","State2":"TX","County":"Travis County","Zip":"78747","Country":"Travis County"},"geometry":{"type":"Point","coordinates":[-97.798495,30.134047]}},{"type":"Feature","properties":{"Address":"900 17 ST W","City":"Austin","State":"Texas","Latitude":"30.281204","Longitude":"-97.747897","Accuracy Score":"1","Accuracy Type":"range_interpolation","Number":"900","Street":"W 17th St","City2":"Austin","State2":"TX","County":"Travis County","Zip":"78701","Country":"Travis County"},"geometry":{"type":"Point","coordinates":[-97.747897,30.281204]}},{"type":"Feature","properties":{"Address":"1000 17 ST W","City":"Austin","State":"Texas","Latitude":"30.281558","Longitude":"-97.749085","Accuracy Score":"1","Accuracy Type":"range_interpolation","Number":"1000","Street":"W 17th St","City2":"Austin","State2":"TX","County":"Travis County","Zip":"78701","Country":"Travis County"},"geometry":{"type":"Point","coordinates":[-97.749085,30.281558]}},{"type":"Feature","properties":{"Address":"400 34ST E","City":"Austin","State":"Texas","Latitude":"30.326374","Longitude":"-97.771258","Accuracy Score":"0.33","Accuracy Type":"place","Number":"","Street":"","City2":"Austin","State2":"TX","County":"Travis County","Zip":"73301","Country":"Travis County"},"geometry":{"type":"Point","coordinates":[-97.771258,30.326374]}},{"type":"Feature","properties":{"Address":"2300 SHOAL CREEK BLVD","City":"Austin","State":"Texas","Latitude":"30.287527","Longitude":"-97.751977","Accuracy Score":"1","Accuracy Type":"range_interpolation","Number":"2300","Street":"Shoal Creek Blvd","City2":"Austin","State2":"TX","County":"Travis County","Zip":"78705","Country":"Travis County"},"geometry":{"type":"Point","coordinates":[-97.751977,30.287527]}},{"type":"Feature","properties":{"Address":"100 ACADEMY DR","City":"Austin","State":"Texas","Latitude":"30.252313","Longitude":"-97.748707","Accuracy Score":"1","Accuracy Type":"range_interpolation","Number":"100","Street":"Academy Dr","City2":"Austin","State2":"TX","County":"Travis County","Zip":"78704","Country":"Travis County"},"geometry":{"type":"Point","coordinates":[-97.748707,30.252313]}},{"type":"Feature","properties":{"Address":"3400 OAKMONT BLVD","City":"Austin","State":"Texas","Latitude":"30.307614","Longitude":"-97.754954","Accuracy Score":"1","Accuracy Type":"range_interpolation","Number":"3400","Street":"Oakmont Blvd","City2":"Austin","State2":"TX","County":"Travis County","Zip":"78703","Country":"Travis County"},"geometry":{"type":"Point","coordinates":[-97.754954,30.307614]}},{"type":"Feature","properties":{"Address":"400 32 ST W","City":"Austin","State":"Texas","Latitude":"30.295238","Longitude":"-97.733624","Accuracy Score":"1","Accuracy Type":"range_interpolation","Number":"400","Street":"E 32nd St","City2":"Austin","State2":"TX","County":"Travis County","Zip":"78705","Country":"Travis County"},"geometry":{"type":"Point","coordinates":[-97.733624,30.295238]}},{"type":"Feature","properties":{"Address":"1900 COMAL ST","City":"Austin","State":"Texas","Latitude":"30.279254","Longitude":"-97.725138","Accuracy Score":"1","Accuracy Type":"range_interpolation","Number":"1900","Street":"Comal St","City2":"Austin","State2":"TX","County":"Travis County","Zip":"78702","Country":"Travis County"},"geometry":{"type":"Point","coordinates":[-97.725138,30.279254]}},{"type":"Feature","properties":{"Address":"3700 MALONE DR","City":"Austin","State":"Texas","Latitude":"30.182952","Longitude":"-97.855225","Accuracy Score":"1","Accuracy Type":"range_interpolation","Number":"3700","Street":"Malone Dr","City2":"Austin","State2":"TX","County":"Travis County","Zip":"78749","Country":"Travis County"},"geometry":{"type":"Point","coordinates":[-97.855225,30.182952]}},{"type":"Feature","properties":{"Address":"3800 MALONE DR","City":"Austin","State":"Texas","Latitude":"30.182927","Longitude":"-97.855235","Accuracy Score":"1","Accuracy Type":"range_interpolation","Number":"3800","Street":"Malone Dr","City2":"Austin","State2":"TX","County":"Travis County","Zip":"78749","Country":"Travis County"},"geometry":{"type":"Point","coordinates":[-97.855235,30.182927]}},{"type":"Feature","properties":{"Address":"3800 MALONE DR","City":"Austin","State":"Texas","Latitude":"30.182927","Longitude":"-97.855235","Accuracy Score":"1","Accuracy Type":"range_interpolation","Number":"3800","Street":"Malone Dr","City2":"Austin","State2":"TX","County":"Travis County","Zip":"78749","Country":"Travis County"},"geometry":{"type":"Point","coordinates":[-97.855235,30.182927]}},{"type":"Feature","properties":{"Address":"2800 PEARL ST","City":"Austin","State":"Texas","Latitude":"30.295086","Longitude":"-97.746101","Accuracy Score":"1","Accuracy Type":"range_interpolation","Number":"2800","Street":"Pearl St","City2":"Austin","State2":"TX","County":"Travis County","Zip":"78705","Country":"Travis County"},"geometry":{"type":"Point","coordinates":[-97.746101,30.295086]}},{"type":"Feature","properties":{"Address":"700 28 ST W 1/2","City":"Austin","State":"Texas","Latitude":"30.2856","Longitude":"-97.722461","Accuracy Score":"0.8","Accuracy Type":"street_center","Number":"","Street":"E 28th St","City2":"Austin","State2":"TX","County":"Travis County","Zip":"78722","Country":"Travis County"},"geometry":{"type":"Point","coordinates":[-97.722461,30.2856]}},{"type":"Feature","properties":{"Address":"900 28 ST W 1/2","City":"Austin","State":"Texas","Latitude":"30.2856","Longitude":"-97.722461","Accuracy Score":"0.8","Accuracy Type":"street_center","Number":"","Street":"E 28th St","City2":"Austin","State2":"TX","County":"Travis County","Zip":"78722","Country":"Travis County"},"geometry":{"type":"Point","coordinates":[-97.722461,30.2856]}},{"type":"Feature","properties":{"Address":"800 28 ST W 1/2","City":"Austin","State":"Texas","Latitude":"30.2856","Longitude":"-97.722461","Accuracy Score":"0.8","Accuracy Type":"street_center","Number":"","Street":"E 28th St","City2":"Austin","State2":"TX","County":"Travis County","Zip":"78722","Country":"Travis County"},"geometry":{"type":"Point","coordinates":[-97.722461,30.2856]}},{"type":"Feature","properties":{"Address":"8500 MAINE DR","City":"Austin","State":"Texas","Latitude":"30.356964","Longitude":"-97.711545","Accuracy Score":"1","Accuracy Type":"range_interpolation","Number":"8500","Street":"Maine Dr","City2":"Austin","State2":"TX","County":"Travis County","Zip":"78758","Country":"Travis County"},"geometry":{"type":"Point","coordinates":[-97.711545,30.356964]}},{"type":"Feature","properties":{"Address":"4200 BELLVUE AVE","City":"Austin","State":"Texas","Latitude":"30.311015","Longitude":"-97.741956","Accuracy Score":"1","Accuracy Type":"range_interpolation","Number":"4200","Street":"Bellvue Ave","City2":"Austin","State2":"TX","County":"Travis County","Zip":"78756","Country":"Travis County"},"geometry":{"type":"Point","coordinates":[-97.741956,30.311015]}},{"type":"Feature","properties":{"Address":"3900 SHAVANO DR","City":"Austin","State":"Texas","Latitude":"30.183637","Longitude":"-97.859738","Accuracy Score":"1","Accuracy Type":"range_interpolation","Number":"3900","Street":"Shavano Dr","City2":"Austin","State2":"TX","County":"Travis County","Zip":"78749","Country":"Travis County"},"geometry":{"type":"Point","coordinates":[-97.859738,30.183637]}},{"type":"Feature","properties":{"Address":"3900 SHAVANO DR","City":"Austin","State":"Texas","Latitude":"30.183637","Longitude":"-97.859738","Accuracy Score":"1","Accuracy Type":"range_interpolation","Number":"3900","Street":"Shavano Dr","City2":"Austin","State2":"TX","County":"Travis County","Zip":"78749","Country":"Travis County"},"geometry":{"type":"Point","coordinates":[-97.859738,30.183637]}},{"type":"Feature","properties":{"Address":"200 33 ST W","City":"Austin","State":"Texas","Latitude":"30.297201","Longitude":"-97.735024","Accuracy Score":"1","Accuracy Type":"range_interpolation","Number":"200","Street":"E 33rd St","City2":"Austin","State2":"TX","County":"Travis County","Zip":"78705","Country":"Travis County"},"geometry":{"type":"Point","coordinates":[-97.735024,30.297201]}},{"type":"Feature","properties":{"Address":"3900 BAILEY LA","City":"Austin","State":"Texas","Latitude":"30.307608","Longitude":"-97.744872","Accuracy Score":"1","Accuracy Type":"range_interpolation","Number":"3900","Street":"Bailey Ln","City2":"Austin","State2":"TX","County":"Travis County","Zip":"78756","Country":"Travis County"},"geometry":{"type":"Point","coordinates":[-97.744872,30.307608]}},{"type":"Feature","properties":{"Address":"3600 SAWMILL DR","City":"Austin","State":"Texas","Latitude":"30.181779","Longitude":"-97.853028","Accuracy Score":"1","Accuracy Type":"range_interpolation","Number":"3600","Street":"Sawmill Dr","City2":"Austin","State2":"TX","County":"Travis County","Zip":"78749","Country":"Travis County"},"geometry":{"type":"Point","coordinates":[-97.853028,30.181779]}},{"type":"Feature","properties":{"Address":"3700 SAWMILL DR","City":"Austin","State":"Texas","Latitude":"30.182617","Longitude":"-97.853971","Accuracy Score":"1","Accuracy Type":"range_interpolation","Number":"3700","Street":"Sawmill Dr","City2":"Austin","State2":"TX","County":"Travis County","Zip":"78749","Country":"Travis County"},"geometry":{"type":"Point","coordinates":[-97.853971,30.182617]}},{"type":"Feature","properties":{"Address":"1500 EVA ST","City":"Austin","State":"Texas","Latitude":"30.249078","Longitude":"-97.751088","Accuracy Score":"1","Accuracy Type":"range_interpolation","Number":"1500","Street":"Eva St","City2":"Austin","State2":"TX","County":"Travis County","Zip":"78704","Country":"Travis County"},"geometry":{"type":"Point","coordinates":[-97.751088,30.249078]}},{"type":"Feature","properties":{"Address":"1000 DANIEL DR","City":"Austin","State":"Texas","Latitude":"30.259241","Longitude":"-97.754974","Accuracy Score":"1","Accuracy Type":"range_interpolation","Number":"1000","Street":"Daniel Dr","City2":"Austin","State2":"TX","County":"Travis County","Zip":"78704","Country":"Travis County"},"geometry":{"type":"Point","coordinates":[-97.754974,30.259241]}},{"type":"Feature","properties":{"Address":"700 POST OAK ST","City":"Austin","State":"Texas","Latitude":"30.256905","Longitude":"-97.753008","Accuracy Score":"1","Accuracy Type":"range_interpolation","Number":"700","Street":"Post Oak St","City2":"Austin","State2":"TX","County":"Travis County","Zip":"78704","Country":"Travis County"},"geometry":{"type":"Point","coordinates":[-97.753008,30.256905]}},{"type":"Feature","properties":{"Address":"900 DANIEL DR","City":"Austin","State":"Texas","Latitude":"30.258507","Longitude":"-97.754067","Accuracy Score":"1","Accuracy Type":"range_interpolation","Number":"900","Street":"Daniel Dr","City2":"Austin","State2":"TX","County":"Travis County","Zip":"78704","Country":"Travis County"},"geometry":{"type":"Point","coordinates":[-97.754067,30.258507]}},{"type":"Feature","properties":{"Address":"500 08 ST W","City":"Austin","State":"Texas","Latitude":"29.431332","Longitude":"-98.48099","Accuracy Score":"1","Accuracy Type":"range_interpolation","Number":"500","Street":"8th St","City2":"San Antonio","State2":"TX","County":"Bexar County","Zip":"78215","Country":"Bexar County"},"geometry":{"type":"Point","coordinates":[-98.48099,29.431332]}},{"type":"Feature","properties":{"Address":"5500 HICKORY DR","City":"Austin","State":"Texas","Latitude":"30.189545","Longitude":"-97.737042","Accuracy Score":"1","Accuracy Type":"range_interpolation","Number":"5500","Street":"Hickory Dr","City2":"Austin","State2":"TX","County":"Travis County","Zip":"78744","Country":"Travis County"},"geometry":{"type":"Point","coordinates":[-97.737042,30.189545]}},{"type":"Feature","properties":{"Address":"800 11 ST W","City":"Austin","State":"Texas","Latitude":"30.576974","Longitude":"-97.413902","Accuracy Score":"0.8","Accuracy Type":"street_center","Number":"","Street":"W 11th St","City2":"Taylor","State2":"TX","County":"Williamson County","Zip":"76574","Country":"Williamson County"},"geometry":{"type":"Point","coordinates":[-97.413902,30.576974]}},{"type":"Feature","properties":{"Address":"600 PARK PL","City":"Austin","State":"Texas","Latitude":"30.2902","Longitude":"-97.734457","Accuracy Score":"1","Accuracy Type":"range_interpolation","Number":"600","Street":"Park Pl","City2":"Austin","State2":"TX","County":"Travis County","Zip":"78705","Country":"Travis County"},"geometry":{"type":"Point","coordinates":[-97.734457,30.2902]}},{"type":"Feature","properties":{"Address":"400 17 ST W","City":"Austin","State":"Texas","Latitude":"30.279586","Longitude":"-97.742286","Accuracy Score":"1","Accuracy Type":"range_interpolation","Number":"400","Street":"W 17th St","City2":"Austin","State2":"TX","County":"Travis County","Zip":"78701","Country":"Travis County"},"geometry":{"type":"Point","coordinates":[-97.742286,30.279586]}},{"type":"Feature","properties":{"Address":"600 12 ST W","City":"Austin","State":"Texas","Latitude":"30.443875","Longitude":"-97.630037","Accuracy Score":"0.8","Accuracy Type":"street_center","Number":"","Street":"12th St","City2":"Pflugerville","State2":"TX","County":"Travis County","Zip":"78660","Country":"Travis County"},"geometry":{"type":"Point","coordinates":[-97.630037,30.443875]}},{"type":"Feature","properties":{"Address":"1200 NEWTON ST","City":"Austin","State":"Texas","Latitude":"30.252463","Longitude":"-97.749819","Accuracy Score":"1","Accuracy Type":"range_interpolation","Number":"1200","Street":"Newton St","City2":"Austin","State2":"TX","County":"Travis County","Zip":"78704","Country":"Travis County"},"geometry":{"type":"Point","coordinates":[-97.749819,30.252463]}},{"type":"Feature","properties":{"Address":"800 HARRIS AVE","City":"Austin","State":"Texas","Latitude":"30.294534","Longitude":"-97.727997","Accuracy Score":"1","Accuracy Type":"range_interpolation","Number":"800","Street":"Harris Ave","City2":"Austin","State2":"TX","County":"Travis County","Zip":"78705","Country":"Travis County"},"geometry":{"type":"Point","coordinates":[-97.727997,30.294534]}},{"type":"Feature","properties":{"Address":"1600 VALERIA DR","City":"Austin","State":"Texas","Latitude":"30.249209","Longitude":"-97.770073","Accuracy Score":"1","Accuracy Type":"range_interpolation","Number":"1600","Street":"Valeria St","City2":"Austin","State2":"TX","County":"Travis County","Zip":"78704","Country":"Travis County"},"geometry":{"type":"Point","coordinates":[-97.770073,30.249209]}},{"type":"Feature","properties":{"Address":"100 MONROE ST W","City":"Austin","State":"Texas","Latitude":"30.247796","Longitude":"-97.75027","Accuracy Score":"1","Accuracy Type":"range_interpolation","Number":"100","Street":"Monroe St W","City2":"Austin","State2":"TX","County":"Travis County","Zip":"78704","Country":"Travis County"},"geometry":{"type":"Point","coordinates":[-97.75027,30.247796]}},{"type":"Feature","properties":{"Address":"1000 22 ST W","City":"Austin","State":"Texas","Latitude":"30.285327","Longitude":"-97.748106","Accuracy Score":"0.9","Accuracy Type":"range_interpolation","Number":"1000","Street":"W 22nd St","City2":"Austin","State2":"TX","County":"Travis County","Zip":"78705","Country":"Travis County"},"geometry":{"type":"Point","coordinates":[-97.748106,30.285327]}},{"type":"Feature","properties":{"Address":"1100 22 ST W","City":"Austin","State":"Texas","Latitude":"30.286346","Longitude":"-97.749528","Accuracy Score":"0.9","Accuracy Type":"range_interpolation","Number":"1100","Street":"W 22 1/2 St","City2":"Austin","State2":"TX","County":"Travis County","Zip":"78705","Country":"Travis County"},"geometry":{"type":"Point","coordinates":[-97.749528,30.286346]}},{"type":"Feature","properties":{"Address":"2200 LEON ST","City":"Austin","State":"Texas","Latitude":"30.285748","Longitude":"-97.749619","Accuracy Score":"1","Accuracy Type":"range_interpolation","Number":"2200","Street":"Leon St","City2":"Austin","State2":"TX","County":"Travis County","Zip":"78705","Country":"Travis County"},"geometry":{"type":"Point","coordinates":[-97.749619,30.285748]}},{"type":"Feature","properties":{"Address":"2100 OXFORD AVE","City":"Austin","State":"Texas","Latitude":"30.249618","Longitude":"-97.770924","Accuracy Score":"1","Accuracy Type":"range_interpolation","Number":"2100","Street":"Oxford Ave","City2":"Austin","State2":"TX","County":"Travis County","Zip":"78704","Country":"Travis County"},"geometry":{"type":"Point","coordinates":[-97.770924,30.249618]}},{"type":"Feature","properties":{"Address":"3300 HELMS ST","City":"Austin","State":"Texas","Latitude":"30.297201","Longitude":"-97.735024","Accuracy Score":"1","Accuracy Type":"range_interpolation","Number":"3300","Street":"Helms St","City2":"Austin","State2":"TX","County":"Travis County","Zip":"78705","Country":"Travis County"},"geometry":{"type":"Point","coordinates":[-97.735024,30.297201]}},{"type":"Feature","properties":{"Address":"2800 44 ST W","City":"Austin","State":"Texas","Latitude":"30.306372","Longitude":"-97.726306","Accuracy Score":"0.8","Accuracy Type":"street_center","Number":"","Street":"E 44th St","City2":"Austin","State2":"TX","County":"Travis County","Zip":"78751","Country":"Travis County"},"geometry":{"type":"Point","coordinates":[-97.726306,30.306372]}},{"type":"Feature","properties":{"Address":"2900 44 ST W","City":"Austin","State":"Texas","Latitude":"30.306372","Longitude":"-97.726306","Accuracy Score":"0.8","Accuracy Type":"street_center","Number":"","Street":"E 44th St","City2":"Austin","State2":"TX","County":"Travis County","Zip":"78751","Country":"Travis County"},"geometry":{"type":"Point","coordinates":[-97.726306,30.306372]}},{"type":"Feature","properties":{"Address":"400 MONROE ST W","City":"Austin","State":"Texas","Latitude":"30.249142","Longitude":"-97.753884","Accuracy Score":"1","Accuracy Type":"range_interpolation","Number":"400","Street":"Monroe St W","City2":"Austin","State2":"TX","County":"Travis County","Zip":"78704","Country":"Travis County"},"geometry":{"type":"Point","coordinates":[-97.753884,30.249142]}},{"type":"Feature","properties":{"Address":"600 17 ST W","City":"Austin","State":"Texas","Latitude":"30.28021","Longitude":"-97.744457","Accuracy Score":"1","Accuracy Type":"range_interpolation","Number":"600","Street":"W 17th St","City2":"Austin","State2":"TX","County":"Travis County","Zip":"78701","Country":"Travis County"},"geometry":{"type":"Point","coordinates":[-97.744457,30.28021]}},{"type":"Feature","properties":{"Address":"1700 RIO GRANDE ST","City":"Austin","State":"Texas","Latitude":"30.28084","Longitude":"-97.745556","Accuracy Score":"1","Accuracy Type":"range_interpolation","Number":"1700","Street":"Rio Grande St","City2":"Austin","State2":"TX","County":"Travis County","Zip":"78701","Country":"Travis County"},"geometry":{"type":"Point","coordinates":[-97.745556,30.28084]}},{"type":"Feature","properties":{"Address":"1800 EVA ST","City":"Austin","State":"Texas","Latitude":"30.246279","Longitude":"-97.752107","Accuracy Score":"1","Accuracy Type":"range_interpolation","Number":"1800","Street":"Eva St","City2":"Austin","State2":"TX","County":"Travis County","Zip":"78704","Country":"Travis County"},"geometry":{"type":"Point","coordinates":[-97.752107,30.246279]}},{"type":"Feature","properties":{"Address":"1000 43 ST W","City":"Austin","State":"Texas","Latitude":"30.31086","Longitude":"-97.739311","Accuracy Score":"1","Accuracy Type":"range_interpolation","Number":"1000","Street":"W 43rd St","City2":"Austin","State2":"TX","County":"Travis County","Zip":"78756","Country":"Travis County"},"geometry":{"type":"Point","coordinates":[-97.739311,30.31086]}},{"type":"Feature","properties":{"Address":"1700 EVA ST","City":"Austin","State":"Texas","Latitude":"30.247208","Longitude":"-97.7518","Accuracy Score":"1","Accuracy Type":"range_interpolation","Number":"1700","Street":"Eva St","City2":"Austin","State2":"TX","County":"Travis County","Zip":"78704","Country":"Travis County"},"geometry":{"type":"Point","coordinates":[-97.7518,30.247208]}},{"type":"Feature","properties":{"Address":"800 POST OAK ST","City":"Austin","State":"Texas","Latitude":"30.257206","Longitude":"-97.753765","Accuracy Score":"1","Accuracy Type":"range_interpolation","Number":"800","Street":"Post Oak St","City2":"Austin","State2":"TX","County":"Travis County","Zip":"78704","Country":"Travis County"},"geometry":{"type":"Point","coordinates":[-97.753765,30.257206]}},{"type":"Feature","properties":{"Address":"2900 HEMPHILL PK","City":"Austin","State":"Texas","Latitude":"30.294632","Longitude":"-97.740895","Accuracy Score":"1","Accuracy Type":"range_interpolation","Number":"2900","Street":"Hemphill Park","City2":"Austin","State2":"TX","County":"Travis County","Zip":"78705","Country":"Travis County"},"geometry":{"type":"Point","coordinates":[-97.740895,30.294632]}},{"type":"Feature","properties":{"Address":"1600 NICKERSON ST","City":"Austin","State":"Texas","Latitude":"30.247492","Longitude":"-97.749113","Accuracy Score":"1","Accuracy Type":"range_interpolation","Number":"1600","Street":"Nickerson St","City2":"Austin","State2":"TX","County":"Travis County","Zip":"78704","Country":"Travis County"},"geometry":{"type":"Point","coordinates":[-97.749113,30.247492]}},{"type":"Feature","properties":{"Address":"400 33 ST W","City":"Austin","State":"Texas","Latitude":"30.296237","Longitude":"-97.732952","Accuracy Score":"1","Accuracy Type":"range_interpolation","Number":"400","Street":"E 33rd St","City2":"Austin","State2":"TX","County":"Travis County","Zip":"78705","Country":"Travis County"},"geometry":{"type":"Point","coordinates":[-97.732952,30.296237]}},{"type":"Feature","properties":{"Address":"500 33 ST W","City":"Austin","State":"Texas","Latitude":"30.299513","Longitude":"-97.739064","Accuracy Score":"0.9","Accuracy Type":"range_interpolation","Number":"500","Street":"W 33rd St","City2":"Austin","State2":"TX","County":"Travis County","Zip":"78705","Country":"Travis County"},"geometry":{"type":"Point","coordinates":[-97.739064,30.299513]}},{"type":"Feature","properties":{"Address":"3100 HARRIS PARK AVE","City":"Austin","State":"Texas","Latitude":"30.291913","Longitude":"-97.731721","Accuracy Score":"1","Accuracy Type":"range_interpolation","Number":"3100","Street":"Harris Park Ave","City2":"Austin","State2":"TX","County":"Travis County","Zip":"78705","Country":"Travis County"},"geometry":{"type":"Point","coordinates":[-97.731721,30.291913]}},{"type":"Feature","properties":{"Address":"3200 HARRIS PARK AVE","City":"Austin","State":"Texas","Latitude":"30.293094","Longitude":"-97.730997","Accuracy Score":"1","Accuracy Type":"range_interpolation","Number":"3200","Street":"Harris Park Ave","City2":"Austin","State2":"TX","County":"Travis County","Zip":"78705","Country":"Travis County"},"geometry":{"type":"Point","coordinates":[-97.730997,30.293094]}},{"type":"Feature","properties":{"Address":"3300 HARRIS PARK AVE","City":"Austin","State":"Texas","Latitude":"30.294429","Longitude":"-97.730218","Accuracy Score":"1","Accuracy Type":"range_interpolation","Number":"3300","Street":"Harris Park Ave","City2":"Austin","State2":"TX","County":"Travis County","Zip":"78705","Country":"Travis County"},"geometry":{"type":"Point","coordinates":[-97.730218,30.294429]}},{"type":"Feature","properties":{"Address":"3600 ASPEN CREEK PKWY","City":"Austin","State":"Texas","Latitude":"30.180054","Longitude":"-97.854082","Accuracy Score":"1","Accuracy Type":"range_interpolation","Number":"3600","Street":"Aspen Creek Pkwy","City2":"Austin","State2":"TX","County":"Travis County","Zip":"78749","Country":"Travis County"},"geometry":{"type":"Point","coordinates":[-97.854082,30.180054]}},{"type":"Feature","properties":{"Address":"3700 ASPEN CREEK PKWY","City":"Austin","State":"Texas","Latitude":"30.181052","Longitude":"-97.855119","Accuracy Score":"1","Accuracy Type":"range_interpolation","Number":"3700","Street":"Aspen Creek Pkwy","City2":"Austin","State2":"TX","County":"Travis County","Zip":"78749","Country":"Travis County"},"geometry":{"type":"Point","coordinates":[-97.855119,30.181052]}},{"type":"Feature","properties":{"Address":"3800 ASPEN CREEK PKWY","City":"Austin","State":"Texas","Latitude":"30.182041","Longitude":"-97.855933","Accuracy Score":"1","Accuracy Type":"range_interpolation","Number":"3800","Street":"Aspen Creek Pkwy","City2":"Austin","State2":"TX","County":"Travis County","Zip":"78749","Country":"Travis County"},"geometry":{"type":"Point","coordinates":[-97.855933,30.182041]}},{"type":"Feature","properties":{"Address":"3400 WILLOW SPRINGS RD","City":"Austin","State":"Texas","Latitude":"30.227668","Longitude":"-97.756357","Accuracy Score":"1","Accuracy Type":"range_interpolation","Number":"3400","Street":"Willow Springs Rd","City2":"Austin","State2":"TX","County":"Travis County","Zip":"78704","Country":"Travis County"},"geometry":{"type":"Point","coordinates":[-97.756357,30.227668]}},{"type":"Feature","properties":{"Address":"3200 HAMPTON RD","City":"Austin","State":"Texas","Latitude":"30.292359","Longitude":"-97.727721","Accuracy Score":"1","Accuracy Type":"range_interpolation","Number":"3200","Street":"Hampton Rd","City2":"Austin","State2":"TX","County":"Travis County","Zip":"78705","Country":"Travis County"},"geometry":{"type":"Point","coordinates":[-97.727721,30.292359]}},{"type":"Feature","properties":{"Address":"1000 08 ST E","City":"Austin","State":"Texas","Latitude":"30.573107","Longitude":"-97.422176","Accuracy Score":"0.9","Accuracy Type":"range_interpolation","Number":"1000","Street":"W 8th St","City2":"Taylor","State2":"TX","County":"Williamson County","Zip":"76574","Country":"Williamson County"},"geometry":{"type":"Point","coordinates":[-97.422176,30.573107]}},{"type":"Feature","properties":{"Address":"1000 09 ST E","City":"Austin","State":"Texas","Latitude":"30.011597","Longitude":"-97.151894","Accuracy Score":"0.8","Accuracy Type":"street_center","Number":"","Street":"NE 9th St","City2":"Smithville","State2":"TX","County":"Bastrop County","Zip":"78957","Country":"Bastrop County"},"geometry":{"type":"Point","coordinates":[-97.151894,30.011597]}},{"type":"Feature","properties":{"Address":"1000 10 ST E","City":"Austin","State":"Texas","Latitude":"29.433147","Longitude":"-98.478991","Accuracy Score":"0.8","Accuracy Type":"street_center","Number":"","Street":"10th St","City2":"San Antonio","State2":"TX","County":"Bexar County","Zip":"78215","Country":"Bexar County"},"geometry":{"type":"Point","coordinates":[-98.478991,29.433147]}},{"type":"Feature","properties":{"Address":"900 09 ST E","City":"Austin","State":"Texas","Latitude":"30.011597","Longitude":"-97.151894","Accuracy Score":"0.8","Accuracy Type":"street_center","Number":"","Street":"NE 9th St","City2":"Smithville","State2":"TX","County":"Bastrop County","Zip":"78957","Country":"Bastrop County"},"geometry":{"type":"Point","coordinates":[-97.151894,30.011597]}},{"type":"Feature","properties":{"Address":"800 SAN MARCOS ST","City":"Austin","State":"Texas","Latitude":"30.267049","Longitude":"-97.731507","Accuracy Score":"1","Accuracy Type":"range_interpolation","Number":"800","Street":"San Marcos St","City2":"Austin","State2":"TX","County":"Travis County","Zip":"78702","Country":"Travis County"},"geometry":{"type":"Point","coordinates":[-97.731507,30.267049]}},{"type":"Feature","properties":{"Address":"1900 42 ST W","City":"Austin","State":"Texas","Latitude":"30.304252","Longitude":"-97.728664","Accuracy Score":"0.8","Accuracy Type":"street_center","Number":"","Street":"E 42nd St","City2":"Austin","State2":"TX","County":"Travis County","Zip":"78751","Country":"Travis County"},"geometry":{"type":"Point","coordinates":[-97.728664,30.304252]}},{"type":"Feature","properties":{"Address":"1700 22 ST E","City":"Austin","State":"Texas","Latitude":"30.285044","Longitude":"-97.738209","Accuracy Score":"0.8","Accuracy Type":"street_center","Number":"","Street":"22nd St E","City2":"Austin","State2":"TX","County":"Travis County","Zip":"78712","Country":"Travis County"},"geometry":{"type":"Point","coordinates":[-97.738209,30.285044]}},{"type":"Feature","properties":{"Address":"1800 22 ST E","City":"Austin","State":"Texas","Latitude":"30.285044","Longitude":"-97.738209","Accuracy Score":"0.8","Accuracy Type":"street_center","Number":"","Street":"22nd St E","City2":"Austin","State2":"TX","County":"Travis County","Zip":"78712","Country":"Travis County"},"geometry":{"type":"Point","coordinates":[-97.738209,30.285044]}},{"type":"Feature","properties":{"Address":"2200 SALINA ST","City":"Austin","State":"Texas","Latitude":"30.282773","Longitude":"-97.722808","Accuracy Score":"1","Accuracy Type":"range_interpolation","Number":"2200","Street":"Salina St","City2":"Austin","State2":"TX","County":"Travis County","Zip":"78722","Country":"Travis County"},"geometry":{"type":"Point","coordinates":[-97.722808,30.282773]}},{"type":"Feature","properties":{"Address":"10600 DESERT WILLOW LOOP","City":"Austin","State":"Texas","Latitude":"30.145548","Longitude":"-97.805032","Accuracy Score":"1","Accuracy Type":"range_interpolation","Number":"10600","Street":"Desert Willow Loop","City2":"Austin","State2":"TX","County":"Travis County","Zip":"78748","Country":"Travis County"},"geometry":{"type":"Point","coordinates":[-97.805032,30.145548]}},{"type":"Feature","properties":{"Address":"100 GIBSON ST E","City":"Austin","State":"Texas","Latitude":"30.249972","Longitude":"-97.749592","Accuracy Score":"1","Accuracy Type":"range_interpolation","Number":"100","Street":"Gibson St E","City2":"Austin","State2":"TX","County":"Travis County","Zip":"78704","Country":"Travis County"},"geometry":{"type":"Point","coordinates":[-97.749592,30.249972]}},{"type":"Feature","properties":{"Address":"200 MONROE ST E","City":"Austin","State":"Texas","Latitude":"30.247792","Longitude":"-97.749113","Accuracy Score":"1","Accuracy Type":"range_interpolation","Number":"200","Street":"Monroe St E","City2":"Austin","State2":"TX","County":"Travis County","Zip":"78704","Country":"Travis County"},"geometry":{"type":"Point","coordinates":[-97.749113,30.247792]}},{"type":"Feature","properties":{"Address":"100 ELIZABETH ST E","City":"Austin","State":"Texas","Latitude":"30.249074","Longitude":"-97.749936","Accuracy Score":"1","Accuracy Type":"range_interpolation","Number":"100","Street":"Elizabeth St E","City2":"Austin","State2":"TX","County":"Travis County","Zip":"78704","Country":"Travis County"},"geometry":{"type":"Point","coordinates":[-97.749936,30.249074]}},{"type":"Feature","properties":{"Address":"200 MILTON ST E","City":"Austin","State":"Texas","Latitude":"30.246863","Longitude":"-97.749463","Accuracy Score":"1","Accuracy Type":"range_interpolation","Number":"200","Street":"Milton St E","City2":"Austin","State2":"TX","County":"Travis County","Zip":"78704","Country":"Travis County"},"geometry":{"type":"Point","coordinates":[-97.749463,30.246863]}},{"type":"Feature","properties":{"Address":"100 MILTON ST E","City":"Austin","State":"Texas","Latitude":"30.247174","Longitude":"-97.750625","Accuracy Score":"1","Accuracy Type":"range_interpolation","Number":"100","Street":"Milton St E","City2":"Austin","State2":"TX","County":"Travis County","Zip":"78704","Country":"Travis County"},"geometry":{"type":"Point","coordinates":[-97.750625,30.247174]}},{"type":"Feature","properties":{"Address":"1000 NAVASOTA ST","City":"Austin","State":"Texas","Latitude":"30.267471","Longitude":"-97.726723","Accuracy Score":"1","Accuracy Type":"range_interpolation","Number":"1000","Street":"Navasota St","City2":"Austin","State2":"TX","County":"Travis County","Zip":"78702","Country":"Travis County"},"geometry":{"type":"Point","coordinates":[-97.726723,30.267471]}},{"type":"Feature","properties":{"Address":"1100 09 ST E","City":"Austin","State":"Texas","Latitude":"30.009716","Longitude":"-97.144788","Accuracy Score":"0.9","Accuracy Type":"range_interpolation","Number":"1100","Street":"NE 9th St","City2":"Smithville","State2":"TX","County":"Bastrop County","Zip":"78957","Country":"Bastrop County"},"geometry":{"type":"Point","coordinates":[-97.144788,30.009716]}},{"type":"Feature","properties":{"Address":"1100 10 ST E","City":"Austin","State":"Texas","Latitude":"29.433147","Longitude":"-98.478991","Accuracy Score":"0.8","Accuracy Type":"street_center","Number":"","Street":"10th St","City2":"San Antonio","State2":"TX","County":"Bexar County","Zip":"78215","Country":"Bexar County"},"geometry":{"type":"Point","coordinates":[-98.478991,29.433147]}},{"type":"Feature","properties":{"Address":"800 WALLER ST","City":"Austin","State":"Texas","Latitude":"30.266555","Longitude":"-97.730066","Accuracy Score":"1","Accuracy Type":"range_interpolation","Number":"800","Street":"Waller St","City2":"Austin","State2":"TX","County":"Travis County","Zip":"78702","Country":"Travis County"},"geometry":{"type":"Point","coordinates":[-97.730066,30.266555]}},{"type":"Feature","properties":{"Address":"900 WALLER ST","City":"Austin","State":"Texas","Latitude":"30.267543","Longitude":"-97.729819","Accuracy Score":"1","Accuracy Type":"range_interpolation","Number":"900","Street":"Waller St","City2":"Austin","State2":"TX","County":"Travis County","Zip":"78702","Country":"Travis County"},"geometry":{"type":"Point","coordinates":[-97.729819,30.267543]}},{"type":"Feature","properties":{"Address":"1000 WALLER ST","City":"Austin","State":"Texas","Latitude":"30.268495","Longitude":"-97.729585","Accuracy Score":"1","Accuracy Type":"range_interpolation","Number":"1000","Street":"Waller St","City2":"Austin","State2":"TX","County":"Travis County","Zip":"78702","Country":"Travis County"},"geometry":{"type":"Point","coordinates":[-97.729585,30.268495]}},{"type":"Feature","properties":{"Address":"700 LYDIA ST","City":"Austin","State":"Texas","Latitude":"30.265094","Longitude":"-97.728882","Accuracy Score":"1","Accuracy Type":"range_interpolation","Number":"700","Street":"Lydia St","City2":"Austin","State2":"TX","County":"Travis County","Zip":"78702","Country":"Travis County"},"geometry":{"type":"Point","coordinates":[-97.728882,30.265094]}},{"type":"Feature","properties":{"Address":"700 WALLER ST","City":"Austin","State":"Texas","Latitude":"30.265575","Longitude":"-97.730335","Accuracy Score":"1","Accuracy Type":"range_interpolation","Number":"700","Street":"Waller St","City2":"Austin","State2":"TX","County":"Travis County","Zip":"78702","Country":"Travis County"},"geometry":{"type":"Point","coordinates":[-97.730335,30.265575]}},{"type":"Feature","properties":{"Address":"800 LYDIA ST","City":"Austin","State":"Texas","Latitude":"30.266038","Longitude":"-97.728662","Accuracy Score":"1","Accuracy Type":"range_interpolation","Number":"800","Street":"Lydia St","City2":"Austin","State2":"TX","County":"Travis County","Zip":"78702","Country":"Travis County"},"geometry":{"type":"Point","coordinates":[-97.728662,30.266038]}},{"type":"Feature","properties":{"Address":"1200 10 ST E","City":"Austin","State":"Texas","Latitude":"29.433147","Longitude":"-98.478991","Accuracy Score":"0.8","Accuracy Type":"street_center","Number":"","Street":"10th St","City2":"San Antonio","State2":"TX","County":"Bexar County","Zip":"78215","Country":"Bexar County"},"geometry":{"type":"Point","coordinates":[-98.478991,29.433147]}},{"type":"Feature","properties":{"Address":"900 LYDIA ST","City":"Austin","State":"Texas","Latitude":"30.267002","Longitude":"-97.728406","Accuracy Score":"1","Accuracy Type":"range_interpolation","Number":"900","Street":"Lydia St","City2":"Austin","State2":"TX","County":"Travis County","Zip":"78702","Country":"Travis County"},"geometry":{"type":"Point","coordinates":[-97.728406,30.267002]}},{"type":"Feature","properties":{"Address":"1000 LYDIA ST","City":"Austin","State":"Texas","Latitude":"30.26797","Longitude":"-97.728152","Accuracy Score":"1","Accuracy Type":"range_interpolation","Number":"1000","Street":"Lydia St","City2":"Austin","State2":"TX","County":"Travis County","Zip":"78702","Country":"Travis County"},"geometry":{"type":"Point","coordinates":[-97.728152,30.26797]}},{"type":"Feature","properties":{"Address":"700 SAN ANTONIO ST","City":"Austin","State":"Texas","Latitude":"30.270406","Longitude":"-97.747002","Accuracy Score":"1","Accuracy Type":"range_interpolation","Number":"700","Street":"San Antonio St","City2":"Austin","State2":"TX","County":"Travis County","Zip":"78701","Country":"Travis County"},"geometry":{"type":"Point","coordinates":[-97.747002,30.270406]}},{"type":"Feature","properties":{"Address":"200 ELIZABETH ST W","City":"Austin","State":"Texas","Latitude":"30.249078","Longitude":"-97.751088","Accuracy Score":"1","Accuracy Type":"range_interpolation","Number":"200","Street":"Elizabeth St W","City2":"Austin","State2":"TX","County":"Travis County","Zip":"78704","Country":"Travis County"},"geometry":{"type":"Point","coordinates":[-97.751088,30.249078]}},{"type":"Feature","properties":{"Address":"1500 NEWTON ST","City":"Austin","State":"Texas","Latitude":"30.249369","Longitude":"-97.752145","Accuracy Score":"1","Accuracy Type":"range_interpolation","Number":"1500","Street":"Newton St","City2":"Austin","State2":"TX","County":"Travis County","Zip":"78704","Country":"Travis County"},"geometry":{"type":"Point","coordinates":[-97.752145,30.249369]}},{"type":"Feature","properties":{"Address":"1400 NEWTON ST","City":"Austin","State":"Texas","Latitude":"30.250377","Longitude":"-97.751291","Accuracy Score":"1","Accuracy Type":"range_interpolation","Number":"1400","Street":"Newton St","City2":"Austin","State2":"TX","County":"Travis County","Zip":"78704","Country":"Travis County"},"geometry":{"type":"Point","coordinates":[-97.751291,30.250377]}},{"type":"Feature","properties":{"Address":"1600 NEWTON ST","City":"Austin","State":"Texas","Latitude":"30.248429","Longitude":"-97.752508","Accuracy Score":"1","Accuracy Type":"range_interpolation","Number":"1600","Street":"Newton St","City2":"Austin","State2":"TX","County":"Travis County","Zip":"78704","Country":"Travis County"},"geometry":{"type":"Point","coordinates":[-97.752508,30.248429]}},{"type":"Feature","properties":{"Address":"2000 02 1/2 ST E","City":"Austin","State":"Texas","Latitude":"30.326374","Longitude":"-97.771258","Accuracy Score":"0.33","Accuracy Type":"place","Number":"","Street":"","City2":"Austin","State2":"TX","County":"Travis County","Zip":"73301","Country":"Travis County"},"geometry":{"type":"Point","coordinates":[-97.771258,30.326374]}},{"type":"Feature","properties":{"Address":"2000 KINNEY AVE","City":"Austin","State":"Texas","Latitude":"30.250396","Longitude":"-97.769309","Accuracy Score":"1","Accuracy Type":"range_interpolation","Number":"2000","Street":"Kinney Ave","City2":"Austin","State2":"TX","County":"Travis County","Zip":"78704","Country":"Travis County"},"geometry":{"type":"Point","coordinates":[-97.769309,30.250396]}},{"type":"Feature","properties":{"Address":"2100 KINNEY AVE","City":"Austin","State":"Texas","Latitude":"30.249209","Longitude":"-97.770073","Accuracy Score":"1","Accuracy Type":"range_interpolation","Number":"2100","Street":"Kinney Ave","City2":"Austin","State2":"TX","County":"Travis County","Zip":"78704","Country":"Travis County"},"geometry":{"type":"Point","coordinates":[-97.770073,30.249209]}},{"type":"Feature","properties":{"Address":"200 PARK LA","City":"Austin","State":"Texas","Latitude":"30.249894","Longitude":"-97.748322","Accuracy Score":"1","Accuracy Type":"range_interpolation","Number":"200","Street":"Park Ln","City2":"Austin","State2":"TX","County":"Travis County","Zip":"78704","Country":"Travis County"},"geometry":{"type":"Point","coordinates":[-97.748322,30.249894]}},{"type":"Feature","properties":{"Address":"200 THE CIRCLE","City":"Austin","State":"Texas","Latitude":"30.249893","Longitude":"-97.748322","Accuracy Score":"1","Accuracy Type":"range_interpolation","Number":"200","Street":"The Cir","City2":"Austin","State2":"TX","County":"Travis County","Zip":"78704","Country":"Travis County"},"geometry":{"type":"Point","coordinates":[-97.748322,30.249893]}},{"type":"Feature","properties":{"Address":"3000 AMY CIR","City":"Austin","State":"Texas","Latitude":"30.377714","Longitude":"-97.749859","Accuracy Score":"0.8","Accuracy Type":"street_center","Number":"","Street":"Amy Cir","City2":"Austin","State2":"TX","County":"Travis County","Zip":"78759","Country":"Travis County"},"geometry":{"type":"Point","coordinates":[-97.749859,30.377714]}},{"type":"Feature","properties":{"Address":"4000 AMY CIR","City":"Austin","State":"Texas","Latitude":"30.377416","Longitude":"-97.75155","Accuracy Score":"1","Accuracy Type":"range_interpolation","Number":"4000","Street":"Amy Cir","City2":"Austin","State2":"TX","County":"Travis County","Zip":"78759","Country":"Travis County"},"geometry":{"type":"Point","coordinates":[-97.75155,30.377416]}},{"type":"Feature","properties":{"Address":"4000 BRANDI CT","City":"Austin","State":"Texas","Latitude":"30.377418","Longitude":"-97.750832","Accuracy Score":"1","Accuracy Type":"range_interpolation","Number":"4000","Street":"Brandi Ct","City2":"Austin","State2":"TX","County":"Travis County","Zip":"78759","Country":"Travis County"},"geometry":{"type":"Point","coordinates":[-97.750832,30.377418]}},{"type":"Feature","properties":{"Address":"900 POST OAK ST","City":"Austin","State":"Texas","Latitude":"30.257628","Longitude":"-97.754607","Accuracy Score":"1","Accuracy Type":"range_interpolation","Number":"900","Street":"Post Oak St","City2":"Austin","State2":"TX","County":"Travis County","Zip":"78704","Country":"Travis County"},"geometry":{"type":"Point","coordinates":[-97.754607,30.257628]}},{"type":"Feature","properties":{"Address":"1900 ULLRICH","City":"Austin","State":"Texas","Latitude":"30.332688","Longitude":"-97.738137","Accuracy Score":"1","Accuracy Type":"range_interpolation","Number":"1900","Street":"Ullrich Ave","City2":"Austin","State2":"TX","County":"Travis County","Zip":"78756","Country":"Travis County"},"geometry":{"type":"Point","coordinates":[-97.738137,30.332688]}},{"type":"Feature","properties":{"Address":"1500 NICKERSON ST","City":"Austin","State":"Texas","Latitude":"30.248429","Longitude":"-97.748776","Accuracy Score":"1","Accuracy Type":"range_interpolation","Number":"1500","Street":"Nickerson St","City2":"Austin","State2":"TX","County":"Travis County","Zip":"78704","Country":"Travis County"},"geometry":{"type":"Point","coordinates":[-97.748776,30.248429]}},{"type":"Feature","properties":{"Address":"91 RED RIVER ST","City":"Austin","State":"Texas","Latitude":"30.260819","Longitude":"-97.738999","Accuracy Score":"1","Accuracy Type":"range_interpolation","Number":"91","Street":"Red River St","City2":"Austin","State2":"TX","County":"Travis County","Zip":"78701","Country":"Travis County"},"geometry":{"type":"Point","coordinates":[-97.738999,30.260819]}},{"type":"Feature","properties":{"Address":"59 BIERCE STREET","City":"Austin","State":"Texas","Latitude":"30.257532","Longitude":"-97.739662","Accuracy Score":"1","Accuracy Type":"range_interpolation","Number":"59","Street":"Bierce St","City2":"Austin","State2":"TX","County":"Travis County","Zip":"78701","Country":"Travis County"},"geometry":{"type":"Point","coordinates":[-97.739662,30.257532]}},{"type":"Feature","properties":{"Address":"700 RIVER ST","City":"Austin","State":"Texas","Latitude":"30.258009","Longitude":"-97.739138","Accuracy Score":"1","Accuracy Type":"range_interpolation","Number":"700","Street":"River St","City2":"Austin","State2":"TX","County":"Travis County","Zip":"78701","Country":"Travis County"},"geometry":{"type":"Point","coordinates":[-97.739138,30.258009]}},{"type":"Feature","properties":{"Address":"2600 SALADO ST","City":"Austin","State":"Texas","Latitude":"30.290877","Longitude":"-97.745368","Accuracy Score":"1","Accuracy Type":"range_interpolation","Number":"2600","Street":"Salado St","City2":"Austin","State2":"TX","County":"Travis County","Zip":"78705","Country":"Travis County"},"geometry":{"type":"Point","coordinates":[-97.745368,30.290877]}},{"type":"Feature","properties":{"Address":"200 ELIZABETH ST E","City":"Austin","State":"Texas","Latitude":"30.248729","Longitude":"-97.748776","Accuracy Score":"1","Accuracy Type":"range_interpolation","Number":"200","Street":"Elizabeth St E","City2":"Austin","State2":"TX","County":"Travis County","Zip":"78704","Country":"Travis County"},"geometry":{"type":"Point","coordinates":[-97.748776,30.248729]}},{"type":"Feature","properties":{"Address":"300 34 ST E","City":"Austin","State":"Texas","Latitude":"30.297796","Longitude":"-97.733502","Accuracy Score":"1","Accuracy Type":"range_interpolation","Number":"300","Street":"E 34th St","City2":"Austin","State2":"TX","County":"Travis County","Zip":"78705","Country":"Travis County"},"geometry":{"type":"Point","coordinates":[-97.733502,30.297796]}},{"type":"Feature","properties":{"Address":"400 35 ST E","City":"Austin","State":"Texas","Latitude":"30.134047","Longitude":"-97.798495","Accuracy Score":"0.8","Accuracy Type":"street_center","Number":"","Street":"I- 35","City2":"Austin","State2":"TX","County":"Travis County","Zip":"78747","Country":"Travis County"},"geometry":{"type":"Point","coordinates":[-97.798495,30.134047]}},{"type":"Feature","properties":{"Address":"3400 GROOMS ST","City":"Austin","State":"Texas","Latitude":"30.297796","Longitude":"-97.733502","Accuracy Score":"1","Accuracy Type":"range_interpolation","Number":"3400","Street":"Grooms St","City2":"Austin","State2":"TX","County":"Travis County","Zip":"78705","Country":"Travis County"},"geometry":{"type":"Point","coordinates":[-97.733502,30.297796]}},{"type":"Feature","properties":{"Address":"3300 GROOMS ST","City":"Austin","State":"Texas","Latitude":"30.296809","Longitude":"-97.734141","Accuracy Score":"1","Accuracy Type":"range_interpolation","Number":"3300","Street":"Grooms St","City2":"Austin","State2":"TX","County":"Travis County","Zip":"78705","Country":"Travis County"},"geometry":{"type":"Point","coordinates":[-97.734141,30.296809]}},{"type":"Feature","properties":{"Address":"3300 TOM GREEN ST","City":"Austin","State":"Texas","Latitude":"30.296237","Longitude":"-97.732952","Accuracy Score":"1","Accuracy Type":"range_interpolation","Number":"3300","Street":"Tom Green St","City2":"Austin","State2":"TX","County":"Travis County","Zip":"78705","Country":"Travis County"},"geometry":{"type":"Point","coordinates":[-97.732952,30.296237]}},{"type":"Feature","properties":{"Address":"3400 TOM GREEN ST","City":"Austin","State":"Texas","Latitude":"30.297229","Longitude":"-97.732335","Accuracy Score":"1","Accuracy Type":"range_interpolation","Number":"3400","Street":"Tom Green St","City2":"Austin","State2":"TX","County":"Travis County","Zip":"78705","Country":"Travis County"},"geometry":{"type":"Point","coordinates":[-97.732335,30.297229]}},{"type":"Feature","properties":{"Address":"12700 SAINT THOMAS","City":"Austin","State":"Texas","Latitude":"30.179601","Longitude":"-97.617218","Accuracy Score":"1","Accuracy Type":"range_interpolation","Number":"12700","Street":"Saint Thomas Dr","City2":"Del Valle","State2":"TX","County":"Travis County","Zip":"78617","Country":"Travis County"},"geometry":{"type":"Point","coordinates":[-97.617218,30.179601]}},{"type":"Feature","properties":{"Address":"12800 SAINT THOMAS","City":"Austin","State":"Texas","Latitude":"30.179631","Longitude":"-97.61727","Accuracy Score":"1","Accuracy Type":"range_interpolation","Number":"12800","Street":"Saint Thomas Dr","City2":"Del Valle","State2":"TX","County":"Travis County","Zip":"78617","Country":"Travis County"},"geometry":{"type":"Point","coordinates":[-97.61727,30.179631]}},{"type":"Feature","properties":{"Address":"1300 28 ST E","City":"Austin","State":"Texas","Latitude":"30.2859","Longitude":"-97.722461","Accuracy Score":"1","Accuracy Type":"range_interpolation","Number":"1300","Street":"E 28th St","City2":"Austin","State2":"TX","County":"Travis County","Zip":"78722","Country":"Travis County"},"geometry":{"type":"Point","coordinates":[-97.722461,30.2859]}},{"type":"Feature","properties":{"Address":"3200 OAKCLAIRE","City":"Austin","State":"Texas","Latitude":"30.240283","Longitude":"-97.853275","Accuracy Score":"0.8","Accuracy Type":"street_center","Number":"","Street":"Oakclaire Ln","City2":"Austin","State2":"TX","County":"Travis County","Zip":"78735","Country":"Travis County"},"geometry":{"type":"Point","coordinates":[-97.853275,30.240283]}},{"type":"Feature","properties":{"Address":"1600 08 ST W","City":"Austin","State":"Texas","Latitude":"29.431647","Longitude":"-98.481372","Accuracy Score":"0.8","Accuracy Type":"street_center","Number":"","Street":"8th St","City2":"San Antonio","State2":"TX","County":"Bexar County","Zip":"78215","Country":"Bexar County"},"geometry":{"type":"Point","coordinates":[-98.481372,29.431647]}},{"type":"Feature","properties":{"Address":"1600 ROMA ST","City":"Austin","State":"Texas","Latitude":"30.248713","Longitude":"-97.753569","Accuracy Score":"1","Accuracy Type":"range_interpolation","Number":"1600","Street":"Roma St","City2":"Austin","State2":"TX","County":"Travis County","Zip":"78704","Country":"Travis County"},"geometry":{"type":"Point","coordinates":[-97.753569,30.248713]}},{"type":"Feature","properties":{"Address":"1400 NICKERSON ST","City":"Austin","State":"Texas","Latitude":"30.249396","Longitude":"-97.748433","Accuracy Score":"1","Accuracy Type":"range_interpolation","Number":"1400","Street":"Nickerson St","City2":"Austin","State2":"TX","County":"Travis County","Zip":"78704","Country":"Travis County"},"geometry":{"type":"Point","coordinates":[-97.748433,30.249396]}},{"type":"Feature","properties":{"Address":"90 LYNN","City":"Austin","State":"Texas","Latitude":"30.045503","Longitude":"-97.266191","Accuracy Score":"0.8","Accuracy Type":"street_center","Number":"","Street":"Loon Dr","City2":"Bastrop","State2":"TX","County":"Bastrop County","Zip":"78602","Country":"Bastrop County"},"geometry":{"type":"Point","coordinates":[-97.266191,30.045503]}},{"type":"Feature","properties":{"Address":"80 LYNN","City":"Austin","State":"Texas","Latitude":"30.045503","Longitude":"-97.266191","Accuracy Score":"0.8","Accuracy Type":"street_center","Number":"","Street":"Loon Dr","City2":"Bastrop","State2":"TX","County":"Bastrop County","Zip":"78602","Country":"Bastrop County"},"geometry":{"type":"Point","coordinates":[-97.266191,30.045503]}},{"type":"Feature","properties":{"Address":"4200 MARATHON BLVD","City":"Austin","State":"Texas","Latitude":"30.310587","Longitude":"-97.741058","Accuracy Score":"1","Accuracy Type":"range_interpolation","Number":"4200","Street":"Marathon Blvd","City2":"Austin","State2":"TX","County":"Travis County","Zip":"78756","Country":"Travis County"},"geometry":{"type":"Point","coordinates":[-97.741058,30.310587]}},{"type":"Feature","properties":{"Address":"8500 NEW HAMPSHIRE","City":"Austin","State":"Texas","Latitude":"30.357586","Longitude":"-97.710141","Accuracy Score":"1","Accuracy Type":"range_interpolation","Number":"8500","Street":"New Hampshire Dr","City2":"Austin","State2":"TX","County":"Travis County","Zip":"78758","Country":"Travis County"},"geometry":{"type":"Point","coordinates":[-97.710141,30.357586]}},{"type":"Feature","properties":{"Address":"500 PARK BLVD","City":"Austin","State":"Texas","Latitude":"30.304036","Longitude":"-97.726529","Accuracy Score":"1","Accuracy Type":"range_interpolation","Number":"500","Street":"Park Blvd","City2":"Austin","State2":"TX","County":"Travis County","Zip":"78751","Country":"Travis County"},"geometry":{"type":"Point","coordinates":[-97.726529,30.304036]}},{"type":"Feature","properties":{"Address":"2800 SALADO ST","City":"Austin","State":"Texas","Latitude":"30.293638","Longitude":"-97.745171","Accuracy Score":"1","Accuracy Type":"range_interpolation","Number":"2800","Street":"Salado St","City2":"Austin","State2":"TX","County":"Travis County","Zip":"78705","Country":"Travis County"},"geometry":{"type":"Point","coordinates":[-97.745171,30.293638]}},{"type":"Feature","properties":{"Address":"3600 BONNIE RD","City":"Austin","State":"Texas","Latitude":"30.295556","Longitude":"-97.780627","Accuracy Score":"1","Accuracy Type":"range_interpolation","Number":"3600","Street":"Bonnie Rd","City2":"Austin","State2":"TX","County":"Travis County","Zip":"78703","Country":"Travis County"},"geometry":{"type":"Point","coordinates":[-97.780627,30.295556]}},{"type":"Feature","properties":{"Address":"3700 ENFIELD RD","City":"Austin","State":"Texas","Latitude":"30.295342","Longitude":"-97.782297","Accuracy Score":"1","Accuracy Type":"range_interpolation","Number":"3700","Street":"Enfield Rd","City2":"Austin","State2":"TX","County":"Travis County","Zip":"78703","Country":"Travis County"},"geometry":{"type":"Point","coordinates":[-97.782297,30.295342]}},{"type":"Feature","properties":{"Address":"1500 ROCKMOOR AVE","City":"Austin","State":"Texas","Latitude":"30.295642","Longitude":"-97.782297","Accuracy Score":"1","Accuracy Type":"range_interpolation","Number":"1500","Street":"Rockmoor Ave","City2":"Austin","State2":"TX","County":"Travis County","Zip":"78703","Country":"Travis County"},"geometry":{"type":"Point","coordinates":[-97.782297,30.295642]}},{"type":"Feature","properties":{"Address":"2400 HAVENSIDE","City":"Austin","State":"Texas","Latitude":"30.244966","Longitude":"-97.76781","Accuracy Score":"1","Accuracy Type":"range_interpolation","Number":"2400","Street":"Havenside Dr","City2":"Austin","State2":"TX","County":"Travis County","Zip":"78704","Country":"Travis County"},"geometry":{"type":"Point","coordinates":[-97.76781,30.244966]}},{"type":"Feature","properties":{"Address":"2900 CHERRYWOOD RD","City":"Austin","State":"Texas","Latitude":"30.284561","Longitude":"-97.718426","Accuracy Score":"1","Accuracy Type":"range_interpolation","Number":"2900","Street":"Cherrywood Rd","City2":"Austin","State2":"TX","County":"Travis County","Zip":"78722","Country":"Travis County"},"geometry":{"type":"Point","coordinates":[-97.718426,30.284561]}},{"type":"Feature","properties":{"Address":"3000 CHERRYWOOD RD","City":"Austin","State":"Texas","Latitude":"30.285274","Longitude":"-97.718093","Accuracy Score":"1","Accuracy Type":"range_interpolation","Number":"3000","Street":"Cherrywood Rd","City2":"Austin","State2":"TX","County":"Travis County","Zip":"78722","Country":"Travis County"},"geometry":{"type":"Point","coordinates":[-97.718093,30.285274]}},{"type":"Feature","properties":{"Address":"3100 CHERRYWOOD RD","City":"Austin","State":"Texas","Latitude":"30.286061","Longitude":"-97.717631","Accuracy Score":"1","Accuracy Type":"range_interpolation","Number":"3100","Street":"Cherrywood Rd","City2":"Austin","State2":"TX","County":"Travis County","Zip":"78722","Country":"Travis County"},"geometry":{"type":"Point","coordinates":[-97.717631,30.286061]}},{"type":"Feature","properties":{"Address":"5500 CLAY AVE","City":"Austin","State":"Texas","Latitude":"30.328818","Longitude":"-97.739268","Accuracy Score":"1","Accuracy Type":"range_interpolation","Number":"5500","Street":"Clay Ave","City2":"Austin","State2":"TX","County":"Travis County","Zip":"78756","Country":"Travis County"},"geometry":{"type":"Point","coordinates":[-97.739268,30.328818]}},{"type":"Feature","properties":{"Address":"5600 CLAY AVE","City":"Austin","State":"Texas","Latitude":"30.32994","Longitude":"-97.738738","Accuracy Score":"1","Accuracy Type":"range_interpolation","Number":"5600","Street":"Clay Ave","City2":"Austin","State2":"TX","County":"Travis County","Zip":"78756","Country":"Travis County"},"geometry":{"type":"Point","coordinates":[-97.738738,30.32994]}},{"type":"Feature","properties":{"Address":"5700 CLAY AVE","City":"Austin","State":"Texas","Latitude":"30.33114","Longitude":"-97.738077","Accuracy Score":"1","Accuracy Type":"range_interpolation","Number":"5700","Street":"Clay Ave","City2":"Austin","State2":"TX","County":"Travis County","Zip":"78756","Country":"Travis County"},"geometry":{"type":"Point","coordinates":[-97.738077,30.33114]}},{"type":"Feature","properties":{"Address":"1600 HOUSTON ST","City":"Austin","State":"Texas","Latitude":"30.327347","Longitude":"-97.736851","Accuracy Score":"1","Accuracy Type":"range_interpolation","Number":"1600","Street":"Houston St","City2":"Austin","State2":"TX","County":"Travis County","Zip":"78756","Country":"Travis County"},"geometry":{"type":"Point","coordinates":[-97.736851,30.327347]}},{"type":"Feature","properties":{"Address":"1700 HOUSTON ST","City":"Austin","State":"Texas","Latitude":"30.327939","Longitude":"-97.738028","Accuracy Score":"1","Accuracy Type":"range_interpolation","Number":"1700","Street":"Houston St","City2":"Austin","State2":"TX","County":"Travis County","Zip":"78756","Country":"Travis County"},"geometry":{"type":"Point","coordinates":[-97.738028,30.327939]}},{"type":"Feature","properties":{"Address":"5600 ADAMS AVE","City":"Austin","State":"Texas","Latitude":"30.330221","Longitude":"-97.73989","Accuracy Score":"1","Accuracy Type":"range_interpolation","Number":"5600","Street":"Adams Ave","City2":"Austin","State2":"TX","County":"Travis County","Zip":"78756","Country":"Travis County"},"geometry":{"type":"Point","coordinates":[-97.73989,30.330221]}},{"type":"Feature","properties":{"Address":"5700 ADAMS AVE","City":"Austin","State":"Texas","Latitude":"30.33154","Longitude":"-97.739257","Accuracy Score":"1","Accuracy Type":"range_interpolation","Number":"5700","Street":"Adams Ave","City2":"Austin","State2":"TX","County":"Travis County","Zip":"78756","Country":"Travis County"},"geometry":{"type":"Point","coordinates":[-97.739257,30.33154]}},{"type":"Feature","properties":{"Address":"5500 JEFF DAVIS AVE","City":"Austin","State":"Texas","Latitude":"30.328239","Longitude":"-97.738028","Accuracy Score":"1","Accuracy Type":"range_interpolation","Number":"5500","Street":"Jeff Davis Ave","City2":"Austin","State2":"TX","County":"Travis County","Zip":"78756","Country":"Travis County"},"geometry":{"type":"Point","coordinates":[-97.738028,30.328239]}},{"type":"Feature","properties":{"Address":"5600 JEFF DAVIS AVE","City":"Austin","State":"Texas","Latitude":"30.329485","Longitude":"-97.737425","Accuracy Score":"1","Accuracy Type":"range_interpolation","Number":"5600","Street":"Jeff Davis Ave","City2":"Austin","State2":"TX","County":"Travis County","Zip":"78756","Country":"Travis County"},"geometry":{"type":"Point","coordinates":[-97.737425,30.329485]}},{"type":"Feature","properties":{"Address":"5700 JEFF DAVIS AVE","City":"Austin","State":"Texas","Latitude":"30.330809","Longitude":"-97.736691","Accuracy Score":"1","Accuracy Type":"range_interpolation","Number":"5700","Street":"Jeff Davis Ave","City2":"Austin","State2":"TX","County":"Travis County","Zip":"78756","Country":"Travis County"},"geometry":{"type":"Point","coordinates":[-97.736691,30.330809]}},{"type":"Feature","properties":{"Address":"5400 JEFF DAVIS AVE","City":"Austin","State":"Texas","Latitude":"30.327067","Longitude":"-97.738951","Accuracy Score":"1","Accuracy Type":"range_interpolation","Number":"5400","Street":"Jeff Davis Ave","City2":"Austin","State2":"TX","County":"Travis County","Zip":"78756","Country":"Travis County"},"geometry":{"type":"Point","coordinates":[-97.738951,30.327067]}},{"type":"Feature","properties":{"Address":"2100 SHOALMONT DR","City":"Austin","State":"Texas","Latitude":"30.329921","Longitude":"-97.73989","Accuracy Score":"1","Accuracy Type":"range_interpolation","Number":"2100","Street":"Shoalmont Dr","City2":"Austin","State2":"TX","County":"Travis County","Zip":"78756","Country":"Travis County"},"geometry":{"type":"Point","coordinates":[-97.73989,30.329921]}},{"type":"Feature","properties":{"Address":"2200 SHOALMONT DR","City":"Austin","State":"Texas","Latitude":"30.329883","Longitude":"-97.741402","Accuracy Score":"1","Accuracy Type":"range_interpolation","Number":"2200","Street":"Shoalmont Dr","City2":"Austin","State2":"TX","County":"Travis County","Zip":"78756","Country":"Travis County"},"geometry":{"type":"Point","coordinates":[-97.741402,30.329883]}},{"type":"Feature","properties":{"Address":"5400 MONTVIEW","City":"Austin","State":"Texas","Latitude":"30.328211","Longitude":"-97.741269","Accuracy Score":"1","Accuracy Type":"range_interpolation","Number":"5400","Street":"Montview St","City2":"Austin","State2":"TX","County":"Travis County","Zip":"78756","Country":"Travis County"},"geometry":{"type":"Point","coordinates":[-97.741269,30.328211]}},{"type":"Feature","properties":{"Address":"5500 MONTVIEW","City":"Austin","State":"Texas","Latitude":"30.330183","Longitude":"-97.741402","Accuracy Score":"1","Accuracy Type":"range_interpolation","Number":"5500","Street":"Montview St","City2":"Austin","State2":"TX","County":"Travis County","Zip":"78756","Country":"Travis County"},"geometry":{"type":"Point","coordinates":[-97.741402,30.330183]}},{"type":"Feature","properties":{"Address":"5600 MONTVIEW","City":"Austin","State":"Texas","Latitude":"30.33143","Longitude":"-97.741642","Accuracy Score":"1","Accuracy Type":"range_interpolation","Number":"5600","Street":"Montview St","City2":"Austin","State2":"TX","County":"Travis County","Zip":"78756","Country":"Travis County"},"geometry":{"type":"Point","coordinates":[-97.741642,30.33143]}},{"type":"Feature","properties":{"Address":"2100 LAWNMONT AVE","City":"Austin","State":"Texas","Latitude":"30.327929","Longitude":"-97.739741","Accuracy Score":"1","Accuracy Type":"range_interpolation","Number":"2100","Street":"Lawnmont Ave","City2":"Austin","State2":"TX","County":"Travis County","Zip":"78756","Country":"Travis County"},"geometry":{"type":"Point","coordinates":[-97.739741,30.327929]}},{"type":"Feature","properties":{"Address":"2200 LAWNMONT AVE","City":"Austin","State":"Texas","Latitude":"30.327911","Longitude":"-97.741269","Accuracy Score":"1","Accuracy Type":"range_interpolation","Number":"2200","Street":"Lawnmont Ave","City2":"Austin","State2":"TX","County":"Travis County","Zip":"78756","Country":"Travis County"},"geometry":{"type":"Point","coordinates":[-97.741269,30.327911]}},{"type":"Feature","properties":{"Address":"5400 SHOALWOOD AVE","City":"Austin","State":"Texas","Latitude":"30.328187","Longitude":"-97.742684","Accuracy Score":"1","Accuracy Type":"range_interpolation","Number":"5400","Street":"Shoalwood Ave","City2":"Austin","State2":"TX","County":"Travis County","Zip":"78756","Country":"Travis County"},"geometry":{"type":"Point","coordinates":[-97.742684,30.328187]}},{"type":"Feature","properties":{"Address":"5500 SHOALWOOD AVE","City":"Austin","State":"Texas","Latitude":"30.330171","Longitude":"-97.742842","Accuracy Score":"1","Accuracy Type":"range_interpolation","Number":"5500","Street":"Shoalwood Ave","City2":"Austin","State2":"TX","County":"Travis County","Zip":"78756","Country":"Travis County"},"geometry":{"type":"Point","coordinates":[-97.742842,30.330171]}},{"type":"Feature","properties":{"Address":"5600 SHOALWOOD AVE","City":"Austin","State":"Texas","Latitude":"30.331611","Longitude":"-97.743096","Accuracy Score":"1","Accuracy Type":"range_interpolation","Number":"5600","Street":"Shoalwood Ave","City2":"Austin","State2":"TX","County":"Travis County","Zip":"78756","Country":"Travis County"},"geometry":{"type":"Point","coordinates":[-97.743096,30.331611]}},{"type":"Feature","properties":{"Address":"500 CAROLYN AVE","City":"Austin","State":"Texas","Latitude":"30.29708","Longitude":"-97.7309","Accuracy Score":"1","Accuracy Type":"range_interpolation","Number":"500","Street":"Carolyn Ave","City2":"Austin","State2":"TX","County":"Travis County","Zip":"78705","Country":"Travis County"},"geometry":{"type":"Point","coordinates":[-97.7309,30.29708]}},{"type":"Feature","properties":{"Address":"2000 FORTVIEW","City":"Austin","State":"Texas","Latitude":"30.230859","Longitude":"-97.787622","Accuracy Score":"1","Accuracy Type":"range_interpolation","Number":"2000","Street":"Fort View Rd","City2":"Austin","State2":"TX","County":"Travis County","Zip":"78704","Country":"Travis County"},"geometry":{"type":"Point","coordinates":[-97.787622,30.230859]}},{"type":"Feature","properties":{"Address":"2100 FORTVIEW","City":"Austin","State":"Texas","Latitude":"30.231806","Longitude":"-97.788761","Accuracy Score":"1","Accuracy Type":"range_interpolation","Number":"2100","Street":"Fort View Rd","City2":"Austin","State2":"TX","County":"Travis County","Zip":"78704","Country":"Travis County"},"geometry":{"type":"Point","coordinates":[-97.788761,30.231806]}},{"type":"Feature","properties":{"Address":"1800 ULLRICH","City":"Austin","State":"Texas","Latitude":"30.332093","Longitude":"-97.736986","Accuracy Score":"1","Accuracy Type":"range_interpolation","Number":"1800","Street":"Ullrich Ave","City2":"Austin","State2":"TX","County":"Travis County","Zip":"78756","Country":"Travis County"},"geometry":{"type":"Point","coordinates":[-97.736986,30.332093]}},{"type":"Feature","properties":{"Address":"700 NEWMAN","City":"Austin","State":"Texas","Latitude":"30.282744","Longitude":"-97.776037","Accuracy Score":"1","Accuracy Type":"range_interpolation","Number":"700","Street":"Newman Dr","City2":"Austin","State2":"TX","County":"Travis County","Zip":"78703","Country":"Travis County"},"geometry":{"type":"Point","coordinates":[-97.776037,30.282744]}},{"type":"Feature","properties":{"Address":"1800 2ND ST SOUTH","City":"Austin","State":"Texas","Latitude":"30.247724","Longitude":"-97.757204","Accuracy Score":"1","Accuracy Type":"range_interpolation","Number":"1800","Street":"S 2nd St","City2":"Austin","State2":"TX","County":"Travis County","Zip":"78704","Country":"Travis County"},"geometry":{"type":"Point","coordinates":[-97.757204,30.247724]}},{"type":"Feature","properties":{"Address":"500 16TH ST WEST","City":"Austin","State":"Texas","Latitude":"30.279035","Longitude":"-97.743733","Accuracy Score":"1","Accuracy Type":"range_interpolation","Number":"500","Street":"W 16th St","City2":"Austin","State2":"TX","County":"Travis County","Zip":"78701","Country":"Travis County"},"geometry":{"type":"Point","coordinates":[-97.743733,30.279035]}},{"type":"Feature","properties":{"Address":"500 EL PASO","City":"Austin","State":"Texas","Latitude":"30.235787","Longitude":"-97.7613","Accuracy Score":"1","Accuracy Type":"range_interpolation","Number":"500","Street":"El Paso St","City2":"Austin","State2":"TX","County":"Travis County","Zip":"78704","Country":"Travis County"},"geometry":{"type":"Point","coordinates":[-97.7613,30.235787]}},{"type":"Feature","properties":{"Address":"1100 E 8th","City":"Austin","State":"Texas","Latitude":"30.266555","Longitude":"-97.730066","Accuracy Score":"1","Accuracy Type":"range_interpolation","Number":"1100","Street":"E 8th St","City2":"Austin","State2":"TX","County":"Travis County","Zip":"78702","Country":"Travis County"},"geometry":{"type":"Point","coordinates":[-97.730066,30.266555]}},{"type":"Feature","properties":{"Address":"1200 E 8th","City":"Austin","State":"Texas","Latitude":"30.266038","Longitude":"-97.728662","Accuracy Score":"1","Accuracy Type":"range_interpolation","Number":"1200","Street":"E 8th St","City2":"Austin","State2":"TX","County":"Travis County","Zip":"78702","Country":"Travis County"},"geometry":{"type":"Point","coordinates":[-97.728662,30.266038]}},{"type":"Feature","properties":{"Address":"305 Brushy","City":"Austin","State":"Texas","Latitude":"30.262713","Longitude":"-97.73462","Accuracy Score":"1","Accuracy Type":"range_interpolation","Number":"305","Street":"Brushy St","City2":"Austin","State2":"TX","County":"Travis County","Zip":"78702","Country":"Travis County"},"geometry":{"type":"Point","coordinates":[-97.73462,30.262713]}},{"type":"Feature","properties":{"Address":"516 Attayac","City":"Austin","State":"Texas","Latitude":"30.263364","Longitude":"-97.729985","Accuracy Score":"1","Accuracy Type":"range_interpolation","Number":"516","Street":"Attayac St","City2":"Austin","State2":"TX","County":"Travis County","Zip":"78702","Country":"Travis County"},"geometry":{"type":"Point","coordinates":[-97.729985,30.263364]}},{"type":"Feature","properties":{"Address":"1205 E 6th","City":"Austin","State":"Texas","Latitude":"30.264251","Longitude":"-97.73055","Accuracy Score":"1","Accuracy Type":"range_interpolation","Number":"1205","Street":"E 6th St","City2":"Austin","State2":"TX","County":"Travis County","Zip":"78702","Country":"Travis County"},"geometry":{"type":"Point","coordinates":[-97.73055,30.264251]}},{"type":"Feature","properties":{"Address":"1200 E 7th","City":"Austin","State":"Texas","Latitude":"30.265575","Longitude":"-97.730335","Accuracy Score":"1","Accuracy Type":"range_interpolation","Number":"1200","Street":"E 7th St","City2":"Austin","State2":"TX","County":"Travis County","Zip":"78702","Country":"Travis County"},"geometry":{"type":"Point","coordinates":[-97.730335,30.265575]}},{"type":"Feature","properties":{"Address":"510 SAN MARCOS ST","City":"Austin","State":"Texas","Latitude":"30.264325","Longitude":"-97.733061","Accuracy Score":"1","Accuracy Type":"range_interpolation","Number":"510","Street":"San Marcos St","City2":"Austin","State2":"TX","County":"Travis County","Zip":"78702","Country":"Travis County"},"geometry":{"type":"Point","coordinates":[-97.733061,30.264325]}},{"type":"Feature","properties":{"Address":"600 WALLER ST","City":"Austin","State":"Texas","Latitude":"30.264554","Longitude":"-97.730527","Accuracy Score":"1","Accuracy Type":"range_interpolation","Number":"600","Street":"Waller St","City2":"Austin","State2":"TX","County":"Travis County","Zip":"78702","Country":"Travis County"},"geometry":{"type":"Point","coordinates":[-97.730527,30.264554]}},